"stop_id","stop_code","stop_name","stop_lat","stop_lon","zone_id","stop_url","location_type","parent_station","municipality_id","stop_desc","stop_timezone","wheelchair_boarding","platform_code","vehicle_type"
"30162","","Rasilantie L","61.0622485869389","24.3634143780794","2","http://82","0","","82","","","0","",""
"30173","","Pappilanniemi","61.0640672471098","24.4043911047224","2","http://82","0","","82","","","0","",""
"30303","","Puutarhaoppilaitos","61.1163596872273","24.3252315721609","2","http://82","0","","82","","","0","",""
"32342","","Hauho linja-autoasema","61.1717495323786","24.5641180044602","3","http://109","0","","109","","","0","",""
"32801","","Hämeenlinna  Eureninkatu","60.9929946691162","24.4555493088539","1","http://109","0","","109","","","0","",""
"32837","","Hämeen Sähkö I","61.0099557963773","24.3988880585575","1","http://109","0","","109","","","0","",""
"32838","","Hämeen Sähkö P","61.0106523418079","24.3985563269318","1","http://109","0","","109","","","0","",""
"32873","","Kahtoilampi I","61.0066736397003","24.4116497040634","1","http://109","0","","109","","","0","",""
"32874","","Kahtoilampi L","61.0071240734356","24.4100181795854","1","http://109","0","","109","","","0","",""
"32986","","Hämeenlinna linja-autoasema B","60.9953267559874","24.4660745741265","1","http://109","0","","109","","","0","",""
"32996","","Luolaja E","60.9739604857336","24.4317582892125","1","http://109","0","","109","","","0","",""
"32997","","Luolaja P","60.974509328856","24.4320883256562","1","http://109","0","","109","","","0","",""
"32998","","Luolajan koulu E","60.971012","24.42675","1","http://109","0","","109","","","0","",""
"33036","","Nikkilä P","60.9469455577375","24.5194298203292","1","http://109","0","","109","","","0","",""
"33046","","Nummenpuisto I","60.9839217555456","24.4043046684696","1","http://109","0","","109","","","0","",""
"33047","","Nummenpuisto L","60.9836923644971","24.4037845093668","1","http://109","0","","109","","","0","",""
"33199","","Tiiriöntie P","61.008279172106","24.4165368874644","1","http://109","0","","109","","","0","",""
"33200","","Tiiriöntie E","61.0088970232226","24.4165689527488","1","http://109","0","","109","","","0","",""
"85367","","Sotka L","60.861558567177","24.1831469418715","3","http://109","0","","109","","","0","",""
"85368","","Sotka I","60.8620887606751","24.1846578606524","3","http://109","0","","109","","","0","",""
"85369","","Alanko I","60.8687422774328","24.2036710330798","3","http://109","0","","109","","","0","",""
"85372","","Mustialantie I","60.8750616206143","24.2208210066827","3","http://109","0","","109","","","0","",""
"85374","","Hanhilammi I","60.8800713455347","24.2337193021171","3","http://109","0","","109","","","0","",""
"85376","","Sahantie I","60.8871239822988","24.2517302153745","3","http://109","0","","109","","","0","",""
"85378","","Kuittila I","60.8937899631353","24.268772032429","2","http://109","0","","109","","","0","",""
"85379","","Renko vt 10 I","60.897061","24.277734","2","http://109","0","","109","","","0","",""
"85380","","Renko vt 10 L","60.897433","24.278555","2","http://109","0","","109","","","0","",""
"85383","","Mankelinmäki E","60.9051600708141","24.3005587841076","2","http://109","0","","109","","","0","",""
"85384","","Mankelinmäki I","60.9064296016146","24.3042080054823","2","http://109","0","","109","","","0","",""
"85385","","Tallipuisto E","60.9148086041795","24.3237404164076","2","http://109","0","","109","","","0","",""
"85386","","Tallipuisto I","60.9161276589977","24.3262099428828","2","http://109","0","","109","","","0","",""
"85387","","Pyyttämö I","60.9230354179574","24.3385724129656","2","http://109","0","","109","","","0","",""
"85388","","Pyyttämö L","60.923507076172","24.3395587494903","2","http://109","0","","109","","","0","",""
"85389","","Pyyttämö","60.9285533428672","24.3523017065914","2","http://109","0","","109","","","0","",""
"85390","","Pyyttämö","60.9291796549484","24.3539655373916","2","http://109","0","","109","","","0","",""
"85391","","Suvipielinen L","60.9337460714828","24.3661073229339","2","http://109","0","","109","","","0","",""
"85392","","Suvipielinen I","60.9341242071609","24.3671168838162","2","http://109","0","","109","","","0","",""
"85393","","Renkovaha E","60.9417502458782","24.3866513198845","2","http://109","0","","109","","","0","",""
"85394","","Renkovaha P","60.9420321801459","24.3872288813898","2","http://109","0","","109","","","0","",""
"85395","","Katiskoski E","60.9487917709398","24.4009223687022","2","http://109","0","","109","","","0","",""
"85396","","Katiskoski P","60.9491498582258","24.4016071809799","2","http://109","0","","109","","","0","",""
"85399","","Hattelmala th L","60.970105","24.46769","1","http://109","0","","109","","","0","",""
"85400","","Hattelmala th I","60.969952","24.468024","1","http://109","0","","109","","","0","",""
"85401","","Suosaarenpolku E","60.9881238333584","24.5025426518345","1","http://109","0","","109","","","0","",""
"85402","","Suosaarenpolku P","60.9893177147437","24.5012902395517","1","http://109","0","","109","","","0","",""
"85405","","Kahilisto L","61.0095805562156","24.5158943629523","1","http://109","0","","109","","","0","",""
"85406","","Kahilisto I","61.0096233189803","24.5160274152088","1","http://109","0","","109","","","0","",""
"85407","","Ruununmylly L","61.0117204787963","24.5275512465441","1","http://109","0","","109","","","0","",""
"85408","","Ruununmylly I","61.0121127706431","24.5301480709278","1","http://109","0","","109","","","0","",""
"85409","","Matkalampi L","61.0133119565608","24.5413488343472","1","http://109","0","","109","","","0","",""
"85410","","Matkalampi I","61.0133836867212","24.5426103343171","1","http://109","0","","109","","","0","",""
"85411","","Siiri L","61.0136997602858","24.5485443406192","1","http://109","0","","109","","","0","",""
"85412","","Siiri I","61.0138301936854","24.5503865926264","1","http://109","0","","109","","","0","",""
"85413","","Velssi L","61.0148830660641","24.5584241852383","1","http://109","0","","109","","","0","",""
"85414","","Velssi I","61.0148421848623","24.561936999365","1","http://109","0","","109","","","0","",""
"85415","","Punnila L","61.0144880436333","24.5667023940606","1","http://109","0","","109","","","0","",""
"85416","","Punnila I","61.0142891780659","24.5715503574586","1","http://109","0","","109","","","0","",""
"85417","","Mustaniitty L","61.0146100933256","24.576036070694","2","http://109","0","","109","","","0","",""
"85418","","Mustaniitty I","61.0148219178592","24.577308370876","2","http://109","0","","109","","","0","",""
"85419","","Häkkärinmäki I","61.0177575923848","24.587742263693","2","http://109","0","","109","","","0","",""
"85420","","Häkkärinmäki L","61.018084107476","24.58881638743","2","http://109","0","","109","","","0","",""
"85421","","Kankainen E","61.0225096421321","24.601843151211","2","http://109","0","","109","","","0","",""
"85422","","Kankainen P","61.0233489762401","24.6034996508589","2","http://109","0","","109","","","0","",""
"85423","","Isomäki E","61.0264337047565","24.6089939927858","2","http://109","0","","109","","","0","",""
"85424","","Isomäki P","61.0270840976372","24.6097996941971","2","http://109","0","","109","","","0","",""
"85425","","Kontuvuori E","61.0325478305645","24.618261478791","2","http://109","0","","109","","","0","",""
"85426","","Kontuvuori P","61.0333509341447","24.6195805957595","2","http://109","0","","109","","","0","",""
"85427","","Komulahti E","61.035389116274","24.6226082038463","2","http://109","0","","109","","","0","",""
"85428","","Komulahti P","61.0363430317081","24.6238964565679","2","http://109","0","","109","","","0","",""
"85429","","Hangasmäki L","61.0426105423112","24.6343835202023","2","http://109","0","","109","","","0","",""
"85430","","Hangasmäki I","61.0429442893864","24.6356688555194","2","http://109","0","","109","","","0","",""
"85431","","Perä-Hätilä L","61.0448900360436","24.6455188881051","2","http://109","0","","109","","","0","",""
"85432","","Perä-Hätilä I","61.0451825476251","24.64752104743","2","http://109","0","","109","","","0","",""
"85433","","Mäntykievari L","61.0465241655931","24.6595780218546","2","http://109","0","","109","","","0","",""
"85434","","Mäntykievari I","61.0466775361283","24.6609501415439","2","http://109","0","","109","","","0","",""
"85435","","Rotkola L","61.0475035334564","24.6683714561226","2","http://109","0","","109","","","0","",""
"85436","","Rotkola I","61.0477324670961","24.66994612086","2","http://109","0","","109","","","0","",""
"85437","","Heinäkangas L","61.0515204717431","24.6809075425489","2","http://109","0","","109","","","0","",""
"85438","","Heinäkangas I","61.0520227591545","24.6820265372105","2","http://109","0","","109","","","0","",""
"85439","","Eteläinen th L","61.0587657966244","24.696903421399","2","http://109","0","","109","","","0","",""
"85440","","Eteläinen th I","61.0598242265643","24.6992563634974","2","http://109","0","","109","","","0","",""
"85441","","Lauhia L","61.0644845558803","24.7099558618898","2","http://109","0","","109","","","0","",""
"85442","","Lauhia I","61.0649717212477","24.7112381378871","2","http://109","0","","109","","","0","",""
"85443","","Mikkola L","61.067065617643","24.7167007004679","2","http://109","0","","109","","","0","",""
"85444","","Mikkola I","61.0674412732226","24.7176907596266","2","http://109","0","","109","","","0","",""
"85445","","Murthuhti L","61.0707972809358","24.7264533925165","3","http://109","0","","109","","","0","",""
"85446","","Murthuhti I","61.0713534976241","24.7278893524806","3","http://109","0","","109","","","0","",""
"85447","","Kantola L","61.0774481288761","24.7426401761208","3","http://109","0","","109","","","0","",""
"85448","","Kantola I","61.0780007971522","24.7441520940633","3","http://109","0","","109","","","0","",""
"85449","","Karutta I","61.0816149618919","24.7545733778255","3","http://109","0","","109","","","0","",""
"85450","","Karutta L","61.0820986941516","24.7561370495655","3","http://109","0","","109","","","0","",""
"85451","","Mutta L","61.0848026374213","24.7649027833007","3","http://109","0","","109","","","0","",""
"85452","","Mutta I","61.0852199484407","24.7662631256689","3","http://109","0","","109","","","0","",""
"85453","","Kirmunti L","61.0879957663234","24.7758803266581","3","http://109","0","","109","","","0","",""
"85454","","Kirmunti I","61.088253462394","24.777383032353","3","http://109","0","","109","","","0","",""
"85455","","Metsähaarantie L","61.0890376453312","24.7871795332388","3","http://109","0","","109","","","0","",""
"85456","","Metsähaarantie I","61.08914187674","24.7887186955212","3","http://109","0","","109","","","0","",""
"85457","","Herkkumaa L","61.0909188313859","24.7992364056757","3","http://109","0","","109","","","0","",""
"85458","","Herkkumaa I","61.09153070798","24.8011318758038","3","http://109","0","","109","","","0","",""
"85459","","Saarenko L","61.0940126491845","24.8089116622728","3","http://109","0","","109","","","0","",""
"85461","","Teuro th L","61.1021552133805","24.8494199461749","3","http://109","0","","109","","","0","",""
"85462","","Teuro th I","61.1027066089942","24.8510948769594","3","http://109","0","","109","","","0","",""
"85655","","Lautsia I","61.2356708140295","24.4423229871144","3","http://109","0","","109","","","0","",""
"85656","","Hakkolantie L","61.2279259424316","24.44907217399","3","http://109","0","","109","","","0","",""
"85657","","Hakkolantie I","61.2271351604301","24.4497380622092","3","http://109","0","","109","","","0","",""
"85658","","Rantaperkiö L","61.2220237464362","24.4647308351089","3","http://109","0","","109","","","0","",""
"85659","","Rantaperkiö I","61.2216763519517","24.4661474587074","3","http://109","0","","109","","","0","",""
"85660","","Isolähteentie L","61.2201661398211","24.4723227988343","3","http://109","0","","109","","","0","",""
"85661","","Isolähteentie I","61.2196637918594","24.4743877531558","3","http://109","0","","109","","","0","",""
"85662","","Liesivuori L","61.2185399099003","24.4790529389332","3","http://109","0","","109","","","0","",""
"85663","","Liesivuori I","61.2180880408874","24.4810161141109","3","http://109","0","","109","","","0","",""
"85664","","Alvettula th L","61.2143533510356","24.4960497157035","3","http://109","0","","109","","","0","",""
"85665","","Karjusaari L","61.2072861809972","24.5122684513595","3","http://109","0","","109","","","0","",""
"85666","","Karjusaari I","61.2064562906828","24.5137014647174","3","http://109","0","","109","","","0","",""
"85667","","Pokkari P","61.2019014009713","24.5213911482806","3","http://109","0","","109","","","0","",""
"85668","","Pokkari E","61.2009734075733","24.5228754342744","3","http://109","0","","109","","","0","",""
"85669","","Töyrynmäki P","61.1959440264699","24.5301646262214","3","http://109","0","","109","","","0","",""
"85670","","Töyrynmäki E","61.1951395634044","24.5312405406548","3","http://109","0","","109","","","0","",""
"85671","","Vitsiälänraitti P","61.1903881527124","24.537084575093","3","http://109","0","","109","","","0","",""
"85672","","Vitsiälänraitti E","61.1897970150474","24.5377620722213","3","http://109","0","","109","","","0","",""
"85673","","Isokekkonen L","61.185041854197","24.5443215849739","3","http://109","0","","109","","","0","",""
"85674","","Isokekkonen I","61.1841009197504","24.5459570077989","3","http://109","0","","109","","","0","",""
"85675","","Vitsiäläntie P","61.181251125111","24.5518533065972","3","http://109","0","","109","","","0","",""
"85676","","Vitsiäläntie E","61.1802926488127","24.554261753537","3","http://109","0","","109","","","0","",""
"85679","","Kenkivuori L","61.1724419099597","24.6099463421821","3","http://109","0","","109","","","0","",""
"85691","","Pyhäjärventie","61.1553613952851","24.7205411159809","3","http://109","0","","109","","","0","",""
"85692","","Pyhäjärventie","61.1552565242044","24.7220137773335","3","http://109","0","","109","","","0","",""
"85702","","Rykäri L","61.1350442528284","24.8050195315273","3","http://109","0","","109","","","0","",""
"85704","","Suolijärventie I","61.1303390847564","24.8096720671174","3","http://109","0","","109","","","0","",""
"85708","","Pappila I","61.1208093032782","24.8288576519819","3","http://109","0","","109","","","0","",""
"85710","","Pannujärvi th I","61.1177006687639","24.8350196224577","3","http://109","0","","109","","","0","",""
"85711","","Likokuja L","61.1152936268228","24.8390567106292","3","http://109","0","","109","","","0","",""
"85713","","Murto L","61.109255509024","24.8488953438771","3","http://109","0","","109","","","0","",""
"85714","","Murto I","61.108805724553","24.8497858921879","3","http://109","0","","109","","","0","",""
"85715","","Pohjoistensuo L","61.1065359132266","24.8550088304574","3","http://109","0","","109","","","0","",""
"85716","","Tuulonen I","61.1040264651946","24.8626626049521","3","http://109","0","","109","","","0","",""
"85717","","Pohjoinen L","61.1021280591458","24.8707744931027","3","http://109","0","","109","","","0","",""
"85718","","Pohjoinen I","61.1017088267025","24.8726387473114","3","http://109","0","","109","","","0","",""
"85719","","Kapakkamäki L","61.0982546104232","24.884431002387","3","http://109","0","","109","","","0","",""
"85720","","Kapakkamäki I","61.0977224989859","24.8858495086137","3","http://109","0","","109","","","0","",""
"85721","","Vääräkoivu L","61.0939898077102","24.8968329666658","3","http://109","0","","109","","","0","",""
"85722","","Vääräkoivu I","61.0934571654551","24.8984508170934","3","http://109","0","","109","","","0","",""
"85725","","Kölköntie L","61.0859495504952","24.9209302832491","3","http://109","0","","109","","","0","",""
"85726","","Kölköntie I","61.0854760721906","24.9224344638582","3","http://109","0","","109","","","0","",""
"85727","","Oksanen L","61.08265198759","24.9337363602998","3","http://109","0","","109","","","0","",""
"85728","","Oksanen I","61.0822900557452","24.934937707362","3","http://109","0","","109","","","0","",""
"85729","","Tanttila L","61.0792600648119","24.9418760512593","3","http://109","0","","109","","","0","",""
"85730","","Tanttila I","61.0789854371646","24.9423119450665","3","http://109","0","","109","","","0","",""
"85731","","Kaitala L","61.0733713313981","24.9565124718579","3","http://109","0","","109","","","0","",""
"85732","","Kaitala I","61.072504","24.959311","3","http://109","0","","109","","","0","",""
"85735","","Kirkkokallio L","61.053813","25.005155","3","http://109","0","","109","","","0","",""
"85737","","Tuomelantie P","61.0509682415025","25.0100606994234","3","http://109","0","","109","","","0","",""
"85739","","Pääjärventie L","61.0453484920908","25.0215908302023","3","http://109","0","","109","","","0","",""
"85740","","Pääjärventie I","61.0447689305548","25.0233854771198","3","http://109","0","","109","","","0","",""
"85741","","Oinen L","61.0433914105379","25.032938298763","3","http://109","0","","109","","","0","",""
"85742","","Oinen I","61.0433176029402","25.0340909548766","3","http://109","0","","109","","","0","",""
"85743","","Työjärvi L","61.0397354179844","25.0560054469455","5","http://98","0","","98","","","0","",""
"85744","","Työjärvi I","61.0396352876863","25.0570625330882","5","http://98","0","","98","","","0","",""
"85757","","Hämeenkoski Itäinen th I","61.0123104255356","25.1716327022871","5","http://98","0","","98","","","0","",""
"85758","","Hyväneula th L","61.0102831663201","25.1758975796859","5","http://98","0","","98","","","0","",""
"85759","","Hyväneula th I","61.0092943411983","25.1778051555525","5","http://98","0","","98","","","0","",""
"85760","","Huljala th L","61.0053026740803","25.1934080970547","5","http://98","0","","98","","","0","",""
"85761","","Huljala th I","61.0051412844997","25.1968028147516","5","http://98","0","","98","","","0","",""
"85762","","Vanhatie L","61.0055143821545","25.2132421933968","5","http://98","0","","98","","","0","",""
"85763","","Vanhatie I","61.005659928228","25.2154616892343","5","http://98","0","","98","","","0","",""
"85764","","Tenhiälä L","61.0064964199735","25.225987903846","5","http://98","0","","98","","","0","",""
"85765","","Tenhiälä I","61.0066792691341","25.2283872091085","5","http://98","0","","98","","","0","",""
"85767","","Tenheläntie L","61.0068105594558","25.2363748967433","5","http://98","0","","98","","","0","",""
"85768","","Kerppiläntie L","61.0064871473628","25.2498012582843","5","http://98","0","","98","","","0","",""
"85769","","Kerppiläntie I","61.00617289578486","25.2529030788263","5","http://98","0","","98","","","0","",""
"85770","","Kyläkulmantie L","61.0062169686384","25.2597585273469","6","http://98","0","","98","","","0","",""
"85771","","Kyläkulmantie I","61.0060761205416","25.2629194789421","6","http://98","0","","98","","","0","",""
"85772","","Kastari L","61.0054818209285","25.2712949441392","6","http://98","0","","98","","","0","",""
"85773","","Kastari I","61.0052603133715","25.274143683216","6","http://98","0","","98","","","0","",""
"85774","","Mäki-Puhtilantie L","61.0044759627313","25.2842051355708","6","http://98","0","","98","","","0","",""
"85775","","Mäki-Puhtilantie I","61.0043661881662","25.2856031124168","6","http://98","0","","98","","","0","",""
"85776","","Sairakkala L","61.0023191881722","25.3076268834107","6","http://98","0","","98","","","0","",""
"85778","","Suontaustantie L","61.0017592355451","25.3141162381233","6","http://98","0","","98","","","0","",""
"85789","","Tähtitorni I","60.9839549226881","25.5856163922342","7","http://398","0","","398","","","0","",""
"85794","","Pirttiharju L","60.9879210486414","25.5666179804962","6","http://398","0","","398","","","0","",""
"85795","","Pirttiharju I","60.9873465949192","25.5688373471233","6","http://398","0","","398","","","0","",""
"85796","","Keskussairaalankatu L","60.9853411467158","25.5784739592625","6","http://398","0","","398","","","0","",""
"85797","","Keskussairaalankatu I","60.9848932439265","25.5805990724143","6","http://398","0","","398","","","0","",""
"85804","","Kärpäsenmäki L","60.9792939940054","25.6091995554476","7","http://398","0","","398","","","0","",""
"85805","","Kärpäsenmäki I","60.9790584778686","25.610604230148","7","http://398","0","","398","","","0","",""
"85806","","Vanharavirata L","60.9794694027392","25.6165043533149","7","http://398","0","","398","","","0","",""
"85807","","Vanharavirata I","60.9796588879891","25.6184871446586","7","http://398","0","","398","","","0","",""
"86199","","Tuulonen E","61.1067938359675","24.8632675877753","3","http://109","0","","109","","","0","",""
"86204","","SydänmaantieP L","61.1136178045962","24.9076983272556","3","http://109","0","","109","","","0","",""
"86205","","SydänmaantieP I","61.1136186341763","24.9085314389178","3","http://109","0","","109","","","0","",""
"86213","","Lammi th Kauranen I","61.1299052614262","24.9677182095904","3","http://109","0","","109","","","0","",""
"86214","","Karhula L","61.1324343449195","24.9870466259025","3","http://109","0","","109","","","0","",""
"86215","","Karhula I","61.1326414951342","24.9884699089443","3","http://109","0","","109","","","0","",""
"86216","","Leiniäntie L","61.1353956078321","24.9992749539371","3","http://109","0","","109","","","0","",""
"86217","","Leiniäntie I","61.1359269067024","25.0005883028714","3","http://109","0","","109","","","0","",""
"86218","","Tommala E","61.1382494566921","25.0049449014266","3","http://109","0","","109","","","0","",""
"86219","","Tommala P","61.1392747605436","25.0063834612961","3","http://109","0","","109","","","0","",""
"86220","","Pienistö E","61.1430019467076","25.0114085239241","3","http://109","0","","109","","","0","",""
"86221","","Pienistö P","61.1440111122399","25.0127713761371","3","http://109","0","","109","","","0","",""
"86222","","Ristimäki E","61.14959876174","25.0175762197221","3","http://109","0","","109","","","0","",""
"86223","","Ristimäki P","61.1506125379748","25.0180249817571","3","http://109","0","","109","","","0","",""
"86224","","Jakkola E","61.1537221754092","25.0211095553257","3","http://109","0","","109","","","0","",""
"86225","","Jakkola P","61.1544963735881","25.0221810421776","3","http://109","0","","109","","","0","",""
"86226","","Pihkalanmäki pohj. E","61.1691591783481","25.0312354924143","3","http://109","0","","109","","","0","",""
"86227","","Pihkalanmäki pohj. P","61.1702238363636","25.0316588198351","3","http://109","0","","109","","","0","",""
"86228","","Jokivarrentie E","61.172420987236","25.0336975485046","3","http://109","0","","109","","","0","",""
"86229","","Jokivarrentie P","61.1727916907038","25.0341917951126","3","http://109","0","","109","","","0","",""
"86230","","Mäkikulmantie E","61.1785231228603","25.0436952830465","3","http://109","0","","109","","","0","",""
"86231","","Mäkikulmantie P","61.178777358373","25.0443652526521","3","http://109","0","","109","","","0","",""
"86232","","Kannistonojantie L","61.1822176410179","25.058915833276345","3","","0","","109","","","0","","3"
"86233","","Kannistonojantie I","61.1824107113738","25.0604800276943","3","http://109","0","","109","","","0","",""
"86234","","Opistontie","61.1907842242172","25.0819703744248","3","http://109","0","","109","","","0","",""
"86352","","Pitkäsenkulma I Riihimäki","60.74763711546572","24.712120301195792","4","","0","","694","","","0","",""
"86438","","Hatunniemi P","61.0249901519434","24.4218921730469","1","http://109","0","","109","","","0","",""
"86439","","Hatunniemi E","61.0255932376383","24.4216620605783","1","http://109","0","","109","","","0","",""
"86441","","Kirstula E","61.0283513373895","24.4197574683736","1","http://109","0","","109","","","0","",""
"86442","","Kirstula P","61.0290951266616","24.4191410272443","1","http://109","0","","109","","","0","",""
"86443","","Tuiskula Kt 57 E","61.0319193733869","24.4159856597147","1","http://109","0","","109","","","0","",""
"86444","","Katinala Kt 57 P","61.0367951025346","24.4075471937666","2","http://82","0","","82","","","0","",""
"86447","","Herniäistenniemi E","61.0435432088553","24.399502348378","2","http://82","0","","82","","","0","",""
"86448","","Herniäistenniemi P","61.0447577856913","24.398511582483","2","http://82","0","","82","","","0","",""
"86449","","Herniäinen E","61.0476839256278","24.3964223216597","2","http://82","0","","82","","","0","",""
"86450","","Herniäinen P","61.048847275447","24.395727243998","2","http://82","0","","82","","","0","",""
"86451","","Vanha kirkko E","61.0516550097959","24.394309104524","2","http://82","0","","82","","","0","",""
"86452","","Vanha kirkko P","61.0526548145717","24.3938923107478","2","http://82","0","","82","","","0","",""
"86453","","Penttilä E","61.0560076265735","24.392847230843","2","http://82","0","","82","","","0","",""
"86454","","Penttilä P","61.056987908713","24.3926456421638","2","http://82","0","","82","","","0","",""
"86455","","Hattula Kt 57 E","61.0592747901471","24.3923307134728","2","http://82","0","","82","","","0","",""
"86456","","Hattula Kt 57 P","61.0618526650397","24.3922660798241","2","http://82","0","","82","","","0","",""
"86457","","Uusi kirkko Kt 57 E","61.0674481931232","24.392268453031","2","http://82","0","","82","","","0","",""
"86458","","Uusi kirkko Kt 57 P","61.0681813122312","24.3921609177638","2","http://82","0","","82","","","0","",""
"86459","","Salimäki Kt 57 E","61.0811828260194","24.3954050247646","2","http://82","0","","82","","","0","",""
"86460","","Salimäki Kt 57 P","61.0817971801582","24.3958629699751","2","http://82","0","","82","","","0","",""
"86461","","Valtee Kt 57 E","61.0908922501198","24.4017710483339","2","http://82","0","","82","","","0","",""
"86462","","Valtee Kt 57 P","61.0922208422968","24.4024775004753","2","http://82","0","","82","","","0","",""
"86463","","Jokivarrentie","61.0986746087974","24.4057878324645","2","http://82","0","","82","","","0","",""
"86464","","Jokivarrentie","61.0995370897041","24.4062892070601","2","http://82","0","","82","","","0","",""
"86465","","Jokivarsi Kt 57 E","61.1151642756893","24.4159592789717","3","http://82","0","","82","","","0","",""
"86466","","Jokivarsi Kt 57 P","61.1157927599242","24.4162002278039","3","http://82","0","","82","","","0","",""
"86467","","Anomaa Kt 57 E","61.1336468431305","24.4173944461143","3","http://82","0","","82","","","0","",""
"86468","","Anomaa Kt 57 P","61.1343499661276","24.4172114332943","3","http://82","0","","82","","","0","",""
"86469","","Lusi Kt 57 E","61.1496510459175","24.4122955093084","3","http://82","0","","82","","","0","",""
"86470","","Lusi Kt 57 P","61.1509191029822","24.4120240621524","3","http://82","0","","82","","","0","",""
"86471","","Korppuentie Kt 57 E","61.1568871233265","24.4111231709611","3","http://82","0","","82","","","0","",""
"86472","","Korppuentie Kt 57 P","61.1582611032498","24.4109923937176","3","http://82","0","","82","","","0","",""
"86473","","Siukola Kt 57 E","61.1615893902117","24.4108028895036","3","http://82","0","","82","","","0","",""
"86474","","Siukola Kt 57 P","61.1630138388646","24.4107847377368","3","http://82","0","","82","","","0","",""
"86475","","Palssari Kt 57 E","61.1749377141429","24.4118273290341","3","http://109","0","","109","","","0","",""
"86476","","Palssari Kt 57 P","61.1754383025491","24.411919809427","3","http://109","0","","109","","","0","",""
"86479","","Innala Kt 57 E","61.1941214819844","24.4036359865767","3","http://109","0","","109","","","0","",""
"86480","","Innala Kt 57 P","61.1945938193328","24.4031517158549","3","http://109","0","","109","","","0","",""
"86481","","Laurilanmäki Kt 57 E","61.2027601944258","24.3984826602236","3","http://109","0","","109","","","0","",""
"86482","","Laurilanmäki Kt 57 P","61.2032976563412","24.3978597568915","3","http://109","0","","109","","","0","",""
"86483","","Iisakkila Kt 57 E","61.2111880372406","24.3877708371857","3","http://109","0","","109","","","0","",""
"86484","","Iisakkila Kt 57 P","61.2117379196744","24.3873217319561","3","http://109","0","","109","","","0","",""
"86485","","Ilmoilan S.talo Kt 57 E","61.2187487854672","24.385082892034","3","http://109","0","","109","","","0","",""
"86486","","Ilmoilan S.talo Kt 57 P","61.2194091125346","24.3850231324727","3","http://109","0","","109","","","0","",""
"86489","","Honkasaari Kt 57 E","61.2302887244523","24.3786056116262","3","http://109","0","","109","","","0","",""
"86490","","Honkasaari Kt 57 P","61.2308959818528","24.378159614703","3","http://109","0","","109","","","0","",""
"86491","","Pikkuharju Kt 57 E","61.2404183713076","24.3639462640297","3","http://109","0","","109","","","0","",""
"87174","","Punkka E","60.7682657276994","24.7071967174339","3","http://165","0","","165","","","0","",""
"87175","","Punkka P","60.768747194882","24.7065879459309","3","http://165","0","","165","","","0","",""
"87176","","Nummenpää E","60.7884147310237","24.6787455214882","3","http://165","0","","165","","","0","",""
"87177","","Nummenpää P","60.78948795809","24.67718906312","3","http://165","0","","165","","","0","",""
"87178","","Paisto E","60.7977141320019","24.665348425463","3","http://165","0","","165","","","0","",""
"87179","","Paisto P","60.7986177959102","24.6640489122116","3","http://165","0","","165","","","0","",""
"87180","","Mikkola E","60.8082595276112","24.6504021401363","3","http://165","0","","165","","","0","",""
"87181","","Mikkola P","60.809129712382","24.6493909787352","3","http://165","0","","165","","","0","",""
"87182","","Tervakoskentie E","60.8135895819758","24.6448059225681","3","http://165","0","","165","","","0","",""
"87183","","Tervakoskentie P","60.8144232699781","24.6439603454452","3","http://165","0","","165","","","0","",""
"87184","","Tervakoskentie","60.816771258449","24.6415633978731","3","http://165","0","","165","","","0","",""
"87189","","Uhkoilantie P","60.8328480674536","24.6263079253394","3","http://165","0","","165","","","0","",""
"87190","","Ahvenkalliontie E","60.8377959697566","24.621340182625","3","http://165","0","","165","","","0","",""
"87191","","Ahvenkalliontie P","60.8396338706638","24.6192792711823","3","http://165","0","","165","","","0","",""
"87192","","Joutjärventie E","60.8487463270435","24.6066513819439","3","http://165","0","","165","","","0","",""
"87193","","Joutjärventie P","60.8493466906937","24.6057188963452","3","http://165","0","","165","","","0","",""
"87194","","Uhkoilantie E","60.8560202527212","24.5994569304668","3","http://165","0","","165","","","0","",""
"87195","","Uhkoilantie P (Linnatuuli)","60.8568881373563","24.5979681926621","3","http://165","0","","165","","","0","",""
"87196","","Tuulensuuntie E","60.8585862639941","24.5929828302932","3","http://165","0","","165","","","0","",""
"87197","","Tuulensuuntie P","60.8593026214915","24.5909551996506","3","http://165","0","","165","","","0","",""
"87198","","Hakoistentie E","60.8796386376388","24.5744573500262","3","http://165","0","","165","","","0","",""
"87199","","Hakoistentie P","60.8807529987348","24.5736806341183","3","http://165","0","","165","","","0","",""
"87200","","Viralan Kartano E","60.9008042122584","24.5573192791931","2","http://165","0","","165","","","0","",""
"87201","","Viralan Kartano P","60.9015743457976","24.5568838850413","2","http://165","0","","165","","","0","",""
"87202","","Jantusentie E","60.9088683908326","24.553138654822","2","http://165","0","","165","","","0","",""
"87203","","Jantusentie P","60.909912342957","24.5526874094811","2","http://165","0","","165","","","0","",""
"87204","","Turengintie E","60.9147596023032","24.5487634167954","2","http://165","0","","165","","","0","",""
"87205","","Turengintie P","60.9151538694941","24.548269086019","2","http://165","0","","165","","","0","",""
"87206","","Rastila th E","60.9398895624067","24.5206288788139","1","http://109","0","","109","","","0","",""
"87207","","Rastila th P","60.941781550577","24.5189082573063","1","http://109","0","","109","","","0","",""
"87208","","Tapomäki E","60.9445504599405","24.5158383944737","1","http://109","0","","109","","","0","",""
"87209","","Tapomäki P","60.9454066382944","24.5146828870506","1","http://109","0","","109","","","0","",""
"87210","","Karanoja E","60.950166390796","24.5059824421012","1","http://109","0","","109","","","0","",""
"87211","","Karanoja P","60.9506612855402","24.5047868468553","1","http://109","0","","109","","","0","",""
"87212","","Pinomäki E","60.9596707021957","24.4853458545009","1","http://109","0","","109","","","0","",""
"87213","","Norjanmäki P","60.9607687190737","24.4838368899471","1","http://109","0","","109","","","0","",""
"87214","","Norjanmäki E","60.9613122278097","24.4831484432522","1","http://109","0","","109","","","0","",""
"87215","","Auringonlähde E","60.9656280185259","24.4804471050794","1","http://109","0","","109","","","0","",""
"87216","","Auringonlähde P","60.9668131872998","24.4794287274827","1","http://109","0","","109","","","0","",""
"87235","","Huoltamon risteys L","61.0295116191606","24.2787515002789","2","http://82","0","","82","","","0","",""
"87236","","Ihalempi th E","61.0348984103425","24.2665952943797","2","http://82","0","","82","","","0","",""
"87237","","Ihalempi th P","61.0357046031233","24.2645441991664","2","http://82","0","","82","","","0","",""
"87238","","Haikonoja E","61.0384382903326","24.2563672147246","2","http://82","0","","82","","","0","",""
"87239","","Haikonoja P","61.0388860642814","24.2548345089973","2","http://82","0","","82","","","0","",""
"87240","","Hakimäki E","61.0431074151155","24.2441055409986","2","http://82","0","","82","","","0","",""
"87241","","Hakimäki P","61.0441422426745","24.2419308535739","2","http://82","0","","82","","","0","",""
"87242","","Haakana E","61.0478082701732","24.2339441296399","2","http://82","0","","82","","","0","",""
"87243","","Haakana P","61.0485216168402","24.2323895096234","2","http://82","0","","82","","","0","",""
"87244","","Valtainmäki E","61.0537292780835","24.2210276764059","2","http://82","0","","82","","","0","",""
"87245","","Valtainmäki P","61.0545657625077","24.2192000060636","2","http://82","0","","82","","","0","",""
"87246","","Leteensuo E","61.0586679751498","24.2102530118349","3","http://109","0","","109","","","0","",""
"87247","","Leteensuo P","61.0596517500462","24.2080880860941","3","http://109","0","","109","","","0","",""
"87248","","Paukkari E","61.0643642808915","24.1958769168793","3","http://109","0","","109","","","0","",""
"87249","","Paukkari P","61.0649278883009","24.1948849810491","3","http://109","0","","109","","","0","",""
"87250","","Lemmetty E","61.0673554934496","24.1916454861842","3","http://109","0","","109","","","0","",""
"87252","","Janha E","61.0843460415454","24.172660383662","3","http://109","0","","109","","","0","",""
"87253","","Janha P","61.085146351127","24.1717685757417","3","http://109","0","","109","","","0","",""
"87254","","Heinun th E","61.0952697293125","24.1600169558177","3","http://109","0","","109","","","0","",""
"88419","","Piilokivi L","60.8770529698628","24.7688000565493","3","http://165","0","","165","","","0","",""
"88420","","Piilokivi I","60.8776868270762","24.7668525327925","3","http://165","0","","165","","","0","",""
"88422","","Helvetinvuori L","60.8809735795057","24.7546433535705","3","http://165","0","","165","","","0","",""
"88424","","Suonsivu P","60.8867175670539","24.7438417639048","3","http://165","0","","165","","","0","",""
"88425","","Kiipula th E","60.8923369583187","24.7316421300475","3","http://165","0","","165","","","0","",""
"88426","","Kiipula th P","60.8933679131717","24.7313132621462","3","http://165","0","","165","","","0","",""
"88427","","Kauppila P","60.9009639448073","24.7210385427161","3","http://165","0","","165","","","0","",""
"88429","","Kerkkola th I","60.9068887273821","24.7096119101041","3","http://165","0","","165","","","0","",""
"88430","","Kerkkola th L","60.9083530923673","24.7068334219164","3","http://165","0","","165","","","0","",""
"88431","","Taappola L","60.9102180637233","24.6932919572716","2","http://165","0","","165","","","0","",""
"88432","","Taappola I","60.9103483688821","24.6924241669626","2","http://165","0","","165","","","0","",""
"88433","","Taimintie I","60.9115967080535","24.687080633888","2","http://165","0","","165","","","0","",""
"88434","","Taimintie L","60.9120988603771","24.6854768591755","2","http://165","0","","165","","","0","",""
"88435","","Raamintie I","60.9135376970184","24.6816905447745","2","http://165","0","","165","","","0","",""
"88436","","Raamintie L","60.9141040140888","24.6801609760681","2","http://165","0","","165","","","0","",""
"88437","","Hakatie I","60.9163183005652","24.67447360731","2","http://165","0","","165","","","0","",""
"88438","","Hakatie L","60.9164173057391","24.6742035531758","2","http://165","0","","165","","","0","",""
"88439","","Kallenkaarre I","60.9172012594392","24.6709209664762","2","http://165","0","","165","","","0","",""
"88440","","Kallenkaarre L","60.9172554389071","24.6696463903838","2","http://165","0","","165","","","0","",""
"88441","","Seppäläntie L","60.9169144586065","24.6617596067454","2","http://165","0","","165","","","0","",""
"88443","","Harjurinne E","60.9171060204482","24.6576668924403","2","http://165","0","","165","","","0","",""
"88444","","Harjurinne P","60.9172199597519","24.6572119418401","2","http://165","0","","165","","","0","",""
"88445","","Tapaila E","60.9269724005144","24.6426487012899","2","http://165","0","","165","","","0","",""
"88446","","Tapaila P","60.9279917451732","24.6416631098594","2","http://165","0","","165","","","0","",""
"88447","","Retuperä E","60.9312076096052","24.6383688392988","2","http://165","0","","165","","","0","",""
"88448","","Retuperä P","60.9326437382446","24.6368056135108","2","http://165","0","","165","","","0","",""
"88449","","Kauriinmaan th E","60.9346250825909","24.6340477746938","2","http://165","0","","165","","","0","",""
"88458","","Alikartano I","60.9596650299679","24.5854850866722","2","http://165","0","","165","","","0","",""
"88459","","Alikartano L","60.9599244365187","24.5833360702312","1","http://109","0","","109","","","0","",""
"88460","","Peräpelto I","60.9609281321242","24.5655410261445","1","http://109","0","","109","","","0","",""
"88461","","Peräpelto L","60.961003733368","24.5642307650184","1","http://109","0","","109","","","0","",""
"88464","","Telkkätie E","60.9638260244614","24.5520325607786","1","http://109","0","","109","","","0","",""
"88465","","Telkkätie P","60.9646862289088","24.5504936092214","1","http://109","0","","109","","","0","",""
"88466","","Käikälä P","60.9697838800136","24.543981774501","1","http://109","0","","109","","","0","",""
"88467","","Käikälä E","60.9713163285176","24.5418955298386","1","http://109","0","","109","","","0","",""
"88468","","Miekkakivi E","60.9748052118319","24.5374830198095","1","http://109","0","","109","","","0","",""
"88469","","Miekkakivi P","60.9755990659908","24.5363043041686","1","http://109","0","","109","","","0","",""
"88470","","Mantereenlinna I","60.9780696659394","24.531803034543","1","http://109","0","","109","","","0","",""
"88471","","Mantereenlinna L","60.9786976156981","24.530356368698","1","http://109","0","","109","","","0","",""
"88472","","Autotehdas I","60.9810347732696","24.5230859869805","1","http://109","0","","109","","","0","",""
"88473","","Autotehdas L","60.9817992987024","24.5194797111898","1","http://109","0","","109","","","0","",""
"88474","","Rastikangas L","60.9176160314581","24.5711488749381","2","http://165","0","","165","","","0","",""
"88475","","Rastikangas I","60.9183823342013","24.5729263323419","2","http://165","0","","165","","","0","",""
"88476","","Kalpalinna th L","60.9226934376956","24.5912443450521","2","http://165","0","","165","","","0","",""
"88477","","Kalpalinna th I","60.9227332554966","24.5928075358417","2","http://165","0","","165","","","0","",""
"88478","","Vähä-Hiisi L","60.9206652731093","24.6118874525524","2","http://165","0","","165","","","0","",""
"88479","","Vähä-Hiisi I","60.9204808004863","24.6146732443261","2","http://165","0","","165","","","0","",""
"88480","","Hiidenjoki I","60.9202594630446","24.6221662726194","2","http://165","0","","165","","","0","",""
"88481","","Hiidenjoki L","60.9202058472717","24.6246222330306","2","http://165","0","","165","","","0","",""
"88482","","Pyhämäki L","60.9197726596533","24.6306899231215","2","http://165","0","","165","","","0","",""
"88483","","Pyhämäki I","60.9194629102507","24.6330152047869","2","http://165","0","","165","","","0","",""
"88484","","Lukio I","60.9190711648682","24.6398328086004","2","http://165","0","","165","","","0","",""
"88485","","Lukio L","60.9192015656843","24.6414976936729","2","http://165","0","","165","","","0","",""
"88486","","Keskuskuja L","60.9206287339831","24.6494892758979","2","http://165","0","","165","","","0","",""
"88487","","Heikkilä I","60.9233083418543","24.6698021872512","2","http://165","0","","165","","","0","",""
"88488","","Heikkilä L","60.9232530041907","24.6696030413215","2","http://165","0","","165","","","0","",""
"88489","","Lastuvuori th I","60.9301106863698","24.6800806652232","2","http://165","0","","165","","","0","",""
"88490","","Lastuvuori th L","60.9306739908912","24.6806650612071","2","http://165","0","","165","","","0","",""
"88491","","Lintuvuori E","60.935709952637","24.704011062158","3","http://165","0","","165","","","0","",""
"88492","","Lintuvuori P","60.9361672252285","24.7049175382704","3","http://165","0","","165","","","0","",""
"88493","","Heinäjoki L","60.9448213610246","24.729650857272","3","http://165","0","","165","","","0","",""
"88494","","Heinäjoki I","60.9450668474197","24.7313741553101","3","http://165","0","","165","","","0","",""
"88496","","Tyrynkyläntie","60.9554797370433","24.7510863416228","3","http://165","0","","165","","","0","",""
"88498","","Säipintie","60.9679181060296","24.7888519294582","3","http://165","0","","165","","","0","",""
"88501","","Kirinmylly E","60.9722065071206","24.7962664872903","3","http://165","0","","165","","","0","",""
"88509","","Metsämaa P","61.0069230886909","24.8800625353629","3","http://109","0","","109","","","0","",""
"88514","","Kataloinen P","61.0206204676573","24.9187603633179","3","http://109","0","","109","","","0","",""
"88730","","Eteläinen th P","61.0597372492017","24.6973316759894","2","http://109","0","","109","","","0","",""
"88731","","Tulimäki E","61.0639825532143","24.6926749154025","2","http://109","0","","109","","","0","",""
"88732","","Tulimäki P","61.0644935140267","24.6920696706855","2","http://109","0","","109","","","0","",""
"88733","","Eteläinen E","61.0699070578226","24.6795078276087","2","http://109","0","","109","","","0","",""
"88735","","Eteläisten koulu E","61.0728725800851","24.6812711635384","2","http://109","0","","109","","","0","",""
"88737","","Pinojenmäki P","61.0769388558714","24.6866658173252","2","http://109","0","","109","","","0","",""
"88738","","Pinojenmäki E","61.0774066533567","24.6868432055927","2","http://109","0","","109","","","0","",""
"88739","","Puolakangas P","61.080712807964","24.6889517435671","2","http://109","0","","109","","","0","",""
"88740","","Puolakangas E","61.0808770638905","24.6891119250826","2","http://109","0","","109","","","0","",""
"88741","","Rajala E","61.0848582735455","24.6921723855784","3","http://109","0","","109","","","0","",""
"88742","","Rajala P","61.0851001922164","24.6924101303543","3","http://109","0","","109","","","0","",""
"88743","","Verimännistö P","61.0927034837794","24.6968581559999","3","http://109","0","","109","","","0","",""
"88744","","Haukilammi E","61.1013782995238","24.7048187053117","3","http://109","0","","109","","","0","",""
"88745","","Haukilammi P","61.1021268963511","24.7044538791745","3","http://109","0","","109","","","0","",""
"88746","","Akkijärvenmäki E","61.1043352768303","24.7045077481555","3","http://109","0","","109","","","0","",""
"88747","","Akkijärvenmäki P","61.1045477273199","24.7044447567954","3","http://109","0","","109","","","0","",""
"88748","","Kaloinen P","61.1164242400434","24.6806639741127","3","http://109","0","","109","","","0","",""
"88749","","Kaloinen E","61.1167087693019","24.6801598329743","3","http://109","0","","109","","","0","",""
"88750","","Luijanen E","61.1202555626251","24.6721906783893","3","http://109","0","","109","","","0","",""
"88751","","Luijanen P","61.1204622357142","24.6713504785659","3","http://109","0","","109","","","0","",""
"88752","","Kokkila th E","61.1240012352778","24.6650781296907","3","http://109","0","","109","","","0","",""
"88753","","Kokkila th P","61.1240443783944","24.6650112057853","3","http://109","0","","109","","","0","",""
"88754","","Pietosentie","61.1253340224338","24.6623198291985","3","http://109","0","","109","","","0","",""
"88755","","Tuittula th E","61.1352270965021","24.6300012915049","3","http://109","0","","109","","","0","",""
"88756","","Tuittula th P","61.1362508782365","24.6287912484542","3","http://109","0","","109","","","0","",""
"88757","","Viittakivi th P","61.1420681461841","24.6239109041653","3","http://109","0","","109","","","0","",""
"88758","","Viittakivi th E","61.1424288071671","24.6231543387896","3","http://109","0","","109","","","0","",""
"88759","","Kallioportti E","61.150313808027","24.6174727640856","3","http://109","0","","109","","","0","",""
"88760","","Kallioportti P","61.1511917629985","24.6168239773453","3","http://109","0","","109","","","0","",""
"88761","","Kelkkanen I","61.1542702134401","24.6076099214047","3","http://109","0","","109","","","0","",""
"88763","","Rapoontie E","61.1566306035876","24.5992985855118","3","http://109","0","","109","","","0","",""
"88764","","Rapoontie P","61.156804962935","24.5985069980055","3","http://109","0","","109","","","0","",""
"88765","","Hautausmaa E","61.1597139566479","24.5902535390209","3","http://109","0","","109","","","0","",""
"88766","","Hautausmaa P","61.1601149819504","24.5896902308309","3","http://109","0","","109","","","0","",""
"88767","","Hietasentie","61.1620932857473","24.5867129495674","3","http://109","0","","109","","","0","",""
"88768","","Ilonen E","61.163612142923","24.5813961358912","3","http://109","0","","109","","","0","",""
"88769","","Ilonen P","61.1639148154759","24.5805426546729","3","http://109","0","","109","","","0","",""
"88771","","Kivikoulu P","61.1667510947947","24.5751617995015","3","http://109","0","","109","","","0","",""
"88772","","Mäntykoto E","61.1678766070938","24.5723876883137","3","http://109","0","","109","","","0","",""
"88773","","Mäntykoto P","61.1684728039176","24.5709909952436","3","http://109","0","","109","","","0","",""
"88774","","Punamäentie","61.1688442369794","24.5700411869725","3","http://109","0","","109","","","0","",""
"88775","","Lahdentie E","61.1755392674763","24.5620627103226","3","http://109","0","","109","","","0","",""
"88776","","Lahdentie P","61.1760583985851","24.5624648665088","3","http://109","0","","109","","","0","",""
"89100","","Kaitala P","61.0734103874879","24.9596787792432","3","http://109","0","","109","","","0","",""
"89101","","Railistontie E","61.0739656206237","24.9613984575515","3","http://109","0","","109","","","0","",""
"89102","","Lamminraitti L","61.0758147227904","24.9742749780781","3","http://109","0","","109","","","0","",""
"89109","","Kostilantie L","61.0807542772599","25.0416462703198","3","http://109","0","","109","","","0","",""
"89122","","Ronni th I","61.0776354463988","25.1050500555347","3","http://109","0","","109","","","0","",""
"103515","","Fellmanninkatu","60.98450244684647","25.652129251298614","7","","0","","398","","","0","","3"
"103613","","Kansanopisto L","60.9803509946272","25.6605915079053","7","http://398","0","","398","","","0","",""
"103614","","Kansanopisto I","60.9803211934715","25.6603563368379","7","http://398","0","","398","","","0","",""
"103707","","Koneharju I","60.9881553531583","25.5573040069933","6","http://398","0","","398","","","0","",""
"103708","","Koneharju L","60.9882605426331","25.5584606045928","6","http://398","0","","398","","","0","",""
"103711","","Konserttitalo L","60.9829913525559","25.6480082806514","7","http://398","0","","398","","","0","",""
"103712","","Konserttitalo I","60.9828371193942","25.6478386044449","7","http://398","0","","398","","","0","",""
"103884","","Mytäjäinen L","60.979981778774","25.636564356196","7","http://398","0","","398","","","0","",""
"103886","","Mytäjäinen I","60.9797107312329","25.6375016478494","7","http://398","0","","398","","","0","",""
"103922","","Okeroistentie L","60.9813344327492","25.6263015978357","7","http://398","0","","398","","","0","",""
"103933","","Oululainen vt 12 L","60.9799609771707","25.6040302238198","7","http://398","0","","398","","","0","",""
"103934","","Oululainen vt 12 I","60.9798694741974","25.6038092112019","7","http://398","0","","398","","","0","",""
"103990","","Pullapojat I","60.986872097364","25.5378798736012","6","http://98","0","","98","","","0","",""
"104011","","Rakuunankatu I","60.9819682796746","25.5909203972988","7","http://398","0","","398","","","0","",""
"104114","","Sopenkorpi L","60.9806047372611","25.6327006322973","7","http://398","0","","398","","","0","",""
"104118","","Ahertajantie L","60.9852907909003","25.4957102206514","6","http://98","0","","98","","","0","",""
"104224","","Vapaudenkatu","60.98382823245376","25.659793310130894","7","","0","","398","","","0","","3"
"137039","","Pirttikoski","61.0124145051519","23.9102416217979","3","http://109","0","","109","","","0","",""
"137145","","Teollisuustie L","61.0954151810839","24.1538010748214","3","http://109","0","","109","","","0","",""
"137146","","Teollisuustie I","61.0957926812341","24.1563047413231","3","http://109","0","","109","","","0","",""
"137148","","Hukari I","61.0906751366979","24.1237508601251","3","http://109","0","","109","","","0","",""
"137149","","Hukari L","61.0910211505895","24.1220481210569","3","http://109","0","","109","","","0","",""
"137150","","Kalvolan kirkko I","61.0948466995537","24.1128476047145","3","http://109","0","","109","","","0","",""
"137151","","Kalvolan kirkko L","61.0951185283007","24.1122584743292","3","http://109","0","","109","","","0","",""
"137152","","Hautausmaa (Kalvola) I","61.0966016223366","24.109075989706","3","http://109","0","","109","","","0","",""
"137153","","Hautausmaa (Kalvola) L","61.096997016787","24.1082106116216","3","http://109","0","","109","","","0","",""
"137154","","Keikkala I","61.10026041887","24.1005129444402","3","http://109","0","","109","","","0","",""
"137155","","Keikkala L","61.1002017103256","24.1008559757106","3","http://109","0","","109","","","0","",""
"137156","","Kalvolan vanhainkoti I","61.1009888221243","24.0956024832258","3","http://109","0","","109","","","0","",""
"137157","","Kalvolan vanhainkoti L","61.1008396177499","24.0938067375599","3","http://109","0","","109","","","0","",""
"137158","","Apala L","61.1037970831608","24.0801198561065","3","http://109","0","","109","","","0","",""
"137159","","Apala I","61.1043211193275","24.0781852482208","3","http://109","0","","109","","","0","",""
"137160","","Sittala I","61.1058766663926","24.0729489281811","3","http://109","0","","109","","","0","",""
"137161","","Sittala L","61.1062139653406","24.0717284642387","3","http://109","0","","109","","","0","",""
"137162","","Oikola I","61.1072332437835","24.0659470039873","3","http://109","0","","109","","","0","",""
"137163","","Oikola L","61.1073182706426","24.0650955633211","3","http://109","0","","109","","","0","",""
"137164","","Taljalan th I","61.1094675156579","24.0563899896471","3","http://109","0","","109","","","0","",""
"137165","","Taljalan th L","61.1100518021664","24.0546618431204","3","http://109","0","","109","","","0","",""
"137166","","Kirkkosillankatu I","61.0073055287007","24.3881066467433","1","http://109","0","","109","","","0","",""
"137167","","Kirkkosillankatu  L","61.0071377354334","24.3878913209304","1","http://109","0","","109","","","0","",""
"137168","","Marssitie E","61.005276","24.385458","1","http://109","0","","109","","","0","",""
"137181","","Kivijoki I","60.9833064236143","24.2999132280981","2","http://82","0","","82","","","0","",""
"137182","","Kivijoki L","60.9833622417033","24.2987758564873","2","http://82","0","","82","","","0","",""
"137183","","Järviöinen I","60.9809592300731","24.2853513079258","2","http://82","0","","82","","","0","",""
"137184","","Järviöinen L","60.9809306767301","24.2845803270258","2","http://82","0","","82","","","0","",""
"137185","","Hyrväläntie th P","60.9792703308167","24.2681810930038","2","http://82","0","","82","","","0","",""
"137186","","Hyrväläntie th E","60.9788174992025","24.2666290319769","2","http://82","0","","82","","","0","",""
"137187","","Hirsitie E","60.9728919820484","24.2572390479304","2","http://82","0","","82","","","0","",""
"137188","","Leksa P","60.9684945003439","24.2540534138871","2","http://82","0","","82","","","0","",""
"137189","","Leksa E","60.9680714970956","24.2535710557575","2","http://82","0","","82","","","0","",""
"137190","","Virkatie P","60.962928206418","24.2454673359068","2","http://82","0","","82","","","0","",""
"137191","","Virkatie E","60.9625447664866","24.2451421071792","2","http://82","0","","82","","","0","",""
"137192","","Virkatie P","60.9579541988878","24.2405238782144","2","http://82","0","","82","","","0","",""
"137193","","Virkatie E","60.9576639275967","24.2399056362265","2","http://82","0","","82","","","0","",""
"137194","","Pellonpää P","60.943328092739","24.2183714963784","3","http://82","0","","82","","","0","",""
"137195","","Pellonpää E","60.9427305951767","24.2182165088127","3","http://82","0","","82","","","0","",""
"137196","","Renkajärventie th P","60.933989264844","24.2154996444703","3","http://109","0","","109","","","0","",""
"137203","","Välläntie P","60.964881774255","24.4202119086631","1","http://109","0","","109","","","0","",""
"137204","","Välläntie E","60.9644602541557","24.4197565994676","1","http://109","0","","109","","","0","",""
"137205","","Suvirinne P","60.9619001767472","24.4170351290158","1","http://109","0","","109","","","0","",""
"137206","","Lepolahti P","60.9564597838581","24.4111322028364","1","http://109","0","","109","","","0","",""
"137207","","Lepolahti E","60.9562723540834","24.4109392054175","1","http://109","0","","109","","","0","",""
"137208","","Koivunmäki E","60.8989356815031","24.2954060383526","2","http://109","0","","109","","","0","",""
"137209","","Koivunmäki P","60.898869811435","24.2954839964734","2","http://109","0","","109","","","0","",""
"137210","","Lepomäentie","60.8918709227276","24.3048400748469","2","http://109","0","","109","","","0","",""
"137211","","Kirkkoherranvirasto/Lepomäentie","60.8911257970044","24.3068756392381","2","http://109","0","","109","","","0","",""
"137213","","Oinaala E","60.8738730354435","24.3376904426089","3","http://109","0","","109","","","0","",""
"137214","","Ylimmäisentie E","60.8480117664802","24.3283190502016","3","http://109","0","","109","","","0","",""
"137217","","Pyntiöntie E","60.8298072787882","24.3388432072399","3","http://109","0","","109","","","0","",""
"137219","","Kivikalliontie E","60.8245208254619","24.3323183187297","3","http://109","0","","109","","","0","",""
"137221","","Ahoinen E","60.8220628866867","24.3302383623656","3","http://109","0","","109","","","0","",""
"137223","","Äijämäki E","60.8187906824416","24.3262001546911","3","http://109","0","","109","","","0","",""
"137225","","Topenontie 1138 E","60.8154829508227","24.3265168890216","3","http://109","0","","109","","","0","",""
"137227","","Vattianmäki E","60.8113182087521","24.3290224102624","3","http://109","0","","109","","","0","",""
"137245","","Tallimäki P","60.8740870542753","24.339209011904","3","http://109","0","","109","","","0","",""
"137246","","Vehmaistentie th L","60.8650719039468","24.3722920746058","3","http://109","0","","109","","","0","",""
"137253","","Viralantie I","60.8722743845681","24.4241498410175","3","http://165","0","","165","","","0","",""
"137254","","Helsingintie","60.879996090924","24.5732655039884","3","http://165","0","","165","","","0","",""
"137255","","Kinnasmäenraitti","60.8769178271997","24.5647917895112","3","http://165","0","","165","","","0","",""
"137257","","Hyvikkäläntie E","60.8753008399547","24.5640655072468","3","http://165","0","","165","","","0","",""
"137258","","Hyvikkäläntie P","60.8743824066785","24.5636530905079","3","http://165","0","","165","","","0","",""
"137260","","Kirkkoportintie th I","60.7844928544892","24.5345899048178","3","http://165","0","","165","","","0","",""
"137261","","Vehmaistentie th L","60.783756015486","24.5402433398892","3","http://165","0","","165","","","0","",""
"137263","","Mattila P","60.7804695232097","24.5439980382554","3","http://165","0","","165","","","0","",""
"137281","","Teollisuuskylä L","60.8172947027843","24.6365870996911","3","http://165","0","","165","","","0","",""
"137282","","Koivusillantie","60.81661605565","24.6337199001421","3","http://165","0","","165","","","0","",""
"137283","","Patala L","60.815921457622","24.6307072894297","3","http://165","0","","165","","","0","",""
"137284","","Tervajoentie I","60.8124071992884","24.621682222105065","3","http://165","0","","165","","","0","",""
"137285","","Tervajoentie L","60.8120261230346","24.6199758062615","3","http://165","0","","165","","","0","",""
"137286","","Martintie I","60.8112205294718","24.6168759765209","3","http://165","0","","165","","","0","",""
"137287","","Martintie L","60.8107588204678","24.6154492633941","3","http://165","0","","165","","","0","",""
"137288","","Puuhamaa I","60.8067423323821","24.6068008710168","3","http://165","0","","165","","","0","",""
"137289","","Puuhamaa L","60.8067072255934","24.606676916277","3","http://165","0","","165","","","0","",""
"137290","","Tietyntie L","60.8053515330355","24.6017974718528","3","http://165","0","","165","","","0","",""
"137291","","Tietyntie I","60.8051383935911","24.6011836997749","3","http://165","0","","165","","","0","",""
"137292","","Korpilontie P","60.8004623443352","24.5948110284936","3","http://165","0","","165","","","0","",""
"137293","","Korpilontie E","60.7998956513891","24.5940095264351","3","http://165","0","","165","","","0","",""
"137294","","Marttila I (Janakkala)","60.7977361317127","24.590424276238","3","http://165","0","","165","","","0","",""
"137295","","Marttila L (Janakkala)","60.7970785155369","24.5890065615644","3","http://165","0","","165","","","0","",""
"137296","","Sokslampi I","60.7949639117251","24.5845035873673","3","http://165","0","","165","","","0","",""
"137297","","Sokslampi L","60.7945369398608","24.5836122059624","3","http://165","0","","165","","","0","",""
"137298","","Ruhantie P","60.7886931976088","24.5784273148694","3","http://165","0","","165","","","0","",""
"137299","","Ruhantie E","60.7882500451368","24.578506928835","3","http://165","0","","165","","","0","",""
"137300","","Neva I","60.7871262730116","24.5604246457317","3","http://165","0","","165","","","0","",""
"137301","","Neva L","60.7876868289574","24.5588319853195","3","http://165","0","","165","","","0","",""
"137302","","Launostentie th I","60.7834917446825","24.5434542257792","3","http://165","0","","165","","","0","",""
"137303","","Napiala L","60.8318407768922","24.6257650063017","3","http://165","0","","165","","","0","",""
"137304","","Napiala I","60.8316321201862","24.6253450332373","3","http://165","0","","165","","","0","",""
"137305","","Vehmaistentie","60.825919354936","24.619432303477","3","http://165","0","","165","","","0","",""
"137306","","Rehakka P","60.8254070653824","24.6203435961594","3","http://165","0","","165","","","0","",""
"137307","","Eskolantie E","60.8212766513771","24.6227491835862","3","http://165","0","","165","","","0","",""
"137308","","Eskolantie P","60.8225025894923","24.6225994788326","3","http://165","0","","165","","","0","",""
"137309","","TK-Talo P","60.8177991181166","24.6224857010949","3","http://165","0","","165","","","0","",""
"137310","","TK-Talo E","60.8177189001535","24.6224842501463","3","http://165","0","","165","","","0","",""
"137349","","Huunantie L","60.8187327143824","24.6427120068793","3","http://165","0","","165","","","0","",""
"137350","","Huunantie I","60.81921100775","24.6447726126448","3","http://165","0","","165","","","0","",""
"137351","","Eväsojantie L","60.8224328854615","24.6589844588032","3","http://165","0","","165","","","0","",""
"137352","","Eväsojantie I","60.8226146377602","24.6600179698814","3","http://165","0","","165","","","0","",""
"137353","","Moottoritie I","60.8234397781995","24.6646994656932","3","http://165","0","","165","","","0","",""
"137354","","Moottoritie L","60.8240582002671","24.6673629581585","3","http://165","0","","165","","","0","",""
"137355","","Ryttyläntie L","60.8256306445808","24.6712669582787","3","http://165","0","","165","","","0","",""
"137356","","Leppäkoskentie","60.8257002008625","24.6730946124949","3","http://165","0","","165","","","0","",""
"137357","","Karanmäki P","60.821018881938","24.6781092780755","3","http://165","0","","165","","","0","",""
"137358","","Leppäkoskentien th","60.8202010817269","24.6783074635563","3","http://165","0","","165","","","0","",""
"137359","","Toukolankaarre L","60.8143631382315","24.6808935482586","3","http://165","0","","165","","","0","",""
"137360","","Toukolankaarre I","60.8138779739813","24.6819208642861","3","http://165","0","","165","","","0","",""
"137361","","Hallakorpi I","60.8134919972785","24.6866270067739","3","http://165","0","","165","","","0","",""
"137362","","Hallakorpi L","60.813487608564","24.6874645279269","3","http://165","0","","165","","","0","",""
"137363","","Santrantie L","60.8134595166405","24.7004914481292","3","http://165","0","","165","","","0","",""
"137364","","Santrantie I","60.8134533651922","24.7018279981532","3","http://165","0","","165","","","0","",""
"137365","","Eetuntie L","60.8134093059848","24.7097497519641","3","http://165","0","","165","","","0","",""
"137366","","Eetuntie I","60.813404439655","24.7109942429953","3","http://165","0","","165","","","0","",""
"137367","","Mäenpää L","60.8124024902425","24.7165993320544","3","http://165","0","","165","","","0","",""
"137368","","Mäenpää I","60.8120575994833","24.7181207303149","3","http://165","0","","165","","","0","",""
"137415","","Arrankorpi E","60.9493774503471","25.0125725290607","3","http://109","0","","109","","","0","",""
"137428","","Huhdintie E","61.0099382839735","25.0355590147278","3","http://109","0","","109","","","0","",""
"137434","","Jahkolantie E","61.0493060838505","25.0072574148095","3","http://109","0","","109","","","0","",""
"137475","","Kukonkoivu L","60.9850393078358","25.4251905718064","6","http://98","0","","98","","","0","",""
"137476","","Kukonkoivu I","60.9852664311992","25.4275355849292","6","http://98","0","","98","","","0","",""
"137477","","Ruopanlähteentie L","60.9857723519816","25.4373969665805","6","http://98","0","","98","","","0","",""
"137478","","Ruopanlähteentie I","60.9858186608331","25.4385990333558","6","http://98","0","","98","","","0","",""
"137479","","Pelto-Sipilä L","60.9860826254772","25.4452008289774","6","http://98","0","","98","","","0","",""
"137480","","Pelto-Sipilä I","60.9861469782503","25.4467980433636","6","http://98","0","","98","","","0","",""
"137481","","Hälvälän koulu L","60.9863318149491","25.4515032268558","6","http://98","0","","98","","","0","",""
"137482","","Hälvälän koulu I","60.9864158418931","25.4537069904812","6","http://98","0","","98","","","0","",""
"137483","","Kinnari I","60.986714568632","25.4611986166707","6","http://98","0","","98","","","0","",""
"137484","","Kinnari L","60.9867642357109","25.4625016865818","6","http://98","0","","98","","","0","",""
"137485","","Turkumäentie I","60.9869897331707","25.4680966798529","6","http://98","0","","98","","","0","",""
"137486","","Työtjärventie I","60.9872942259211","25.4772000802796","6","http://98","0","","98","","","0","",""
"137487","","Työtjärventie L","60.9872893422642","25.478500061276","6","http://98","0","","98","","","0","",""
"137488","","Varrastie I","60.987262522988","25.482399699438","6","http://98","0","","98","","","0","",""
"137489","","Varrastie L","60.9872632021449","25.4822997503545","6","http://98","0","","98","","","0","",""
"137490","","Soramäki I","60.9859912871049","25.4914069251229","6","http://98","0","","98","","","0","",""
"137839","","Vihtola P","61.0280082342057","24.3295960945605","2","http://82","0","","82","","","0","",""
"137841","","Ylinen P","61.0309104127216","24.334394180952","2","http://82","0","","82","","","0","",""
"137843","","Lehijärven rantatie P","61.0377646166274","24.3434439887095","2","http://82","0","","82","","","0","",""
"137845","","Panssarimuseo I","61.0418550033143","24.3477997239786","2","http://82","0","","82","","","0","",""
"137846","","Kanunki E","61.044948115699","24.3526187128699","2","http://82","0","","82","","","0","",""
"137847","","Kanunki P","61.0458223421142","24.3537872667355","2","http://82","0","","82","","","0","",""
"137850","","Paloasema L","61.0519942841915","24.3674753210351","2","http://82","0","","82","","","0","",""
"137851","","Paloasema I","61.0527029470566","24.3692007631604","2","http://82","0","","82","","","0","",""
"137852","","Mierolanpelto L","61.057953989983","24.381644918351","2","http://82","0","","82","","","0","",""
"137853","","Mierolanpelto I","61.0584702984662","24.3835328545408","2","http://82","0","","82","","","0","",""
"137854","","Teollisuustie L","61.0596776212684","24.3906456354999","2","http://82","0","","82","","","0","",""
"137855","","Varikko P","61.0145634690326","24.3869095614799","1","http://109","0","","109","","","0","",""
"137856","","Varikko E","61.0152279595873","24.3865991139813","1","http://109","0","","109","","","0","",""
"137857","","Nihattula th I","61.0175887951403","24.3756464112126","1","http://109","0","","109","","","0","",""
"137864","","Parolannummi P","61.0330703314664","24.3545843199402","2","http://82","0","","82","","","0","",""
"137865","","Parolannummi as.alue 1 E","61.0374923178015","24.3523321722415","2","http://82","0","","82","","","0","",""
"137866","","Parolannummi as.alue 1 P","61.0378389701947","24.3522676067803","2","http://82","0","","82","","","0","",""
"137867","","Panssarimuseo E","61.0412335966024","24.3475449963938","2","http://82","0","","82","","","0","",""
"137868","","Katajisto E","61.0267267114191","24.4462091472367","1","http://109","0","","109","","","0","",""
"137869","","Katajisto P","61.0278050648296","24.4487916153896","1","http://109","0","","109","","","0","",""
"137870","","Aulangon Heikkilä E","61.0316622459965","24.4504453416306","1","http://109","0","","109","","","0","",""
"137871","","Metsänkylä E","61.0404537734532","24.4495348822627","2","http://82","0","","82","","","0","",""
"137872","","Metsänkylä P","61.0414485110333","24.4486478259325","2","http://82","0","","82","","","0","",""
"137873","","Moosenmäki E","61.044945114313","24.4467621181343","2","http://82","0","","82","","","0","",""
"137874","","Moosenmäki P","61.0457026929761","24.4468114602842","2","http://82","0","","82","","","0","",""
"137875","","Pekolan koulu E","61.0472613178188","24.444681188574","2","http://82","0","","82","","","0","",""
"137876","","Pekolan koulu P","61.0478638802441","24.4437074646917","2","http://82","0","","82","","","0","",""
"137877","","Pekolan lava E","61.050644506141","24.4399595091791","2","http://82","0","","82","","","0","",""
"137878","","Pekolan lava P","61.0512656735517","24.4389465171067","2","http://82","0","","82","","","0","",""
"137879","","Ahlbacka E","61.0525002075317","24.4367611616414","2","http://82","0","","82","","","0","",""
"137880","","Ahlbacka P","61.0531771089489","24.4355176097565","2","http://82","0","","82","","","0","",""
"137881","","Kärjenmäki E","61.0556229258652","24.4311893612804","2","http://82","0","","82","","","0","",""
"137882","","Kärjenmäki P","61.0561469694696","24.4297099100887","2","http://82","0","","82","","","0","",""
"137883","","Poransaari E","61.0566587314333","24.4235300081621","2","http://82","0","","82","","","0","",""
"137884","","Poransaari P","61.0570963340136","24.4224731646162","2","http://82","0","","82","","","0","",""
"137885","","Keltomäki E","61.0597412036203","24.4193484403831","2","http://82","0","","82","","","0","",""
"137886","","Keltomäki P","61.0605213891056","24.4186367936493","2","http://82","0","","82","","","0","",""
"137887","","Purkalontie E","61.0631998554925","24.4174420120085","2","http://82","0","","82","","","0","",""
"137888","","Purkalontie P","61.0640380447087","24.4163419160298","2","http://82","0","","82","","","0","",""
"137891","","Rahkoilan koulu I","61.0724526699147","24.4008741214822","2","http://82","0","","82","","","0","",""
"137892","","Rahkoilan koulu L","61.0728872237809","24.3974172728844","2","http://82","0","","82","","","0","",""
"137893","","Rahkoila L","61.0731035783103","24.3943464930301","2","http://82","0","","82","","","0","",""
"137894","","Rahkoila I","61.0730673434455","24.3931245903696","2","http://82","0","","82","","","0","",""
"137896","","Kokkila P","61.133759025438","24.6643931811369","3","http://109","0","","109","","","0","",""
"137897","","Tanhuanpääntie L","61.0735929143932","24.3875561191589","2","http://82","0","","82","","","0","",""
"137898","","Tanhuanpääntie I","61.0738119352694","24.3861515824122","2","http://82","0","","82","","","0","",""
"137899","","Vesunnin vainio E","61.0794192211683","24.3827034237427","2","http://82","0","","82","","","0","",""
"137900","","Vesunnin vainio P","61.0797706502825","24.3824744560924","2","http://82","0","","82","","","0","",""
"137901","","Vammelpolku E","61.0819092562951","24.3795893383466","2","http://82","0","","82","","","0","",""
"137902","","Vammelpolku P","61.082206490306","24.3792098278096","2","http://82","0","","82","","","0","",""
"137903","","Vesunti kartano E","61.090170999296","24.3706563469592","2","http://82","0","","82","","","0","",""
"137904","","Vesunti kartano P","61.0905009565256","24.3705243568307","2","http://82","0","","82","","","0","",""
"137905","","Perkiönkallio E","61.0962678636025","24.3692589163883","2","http://82","0","","82","","","0","",""
"137906","","Perkiönkallio P","61.0965352307663","24.3691948270929","2","http://82","0","","82","","","0","",""
"137907","","Pikku-Mervi E","61.0993945105063","24.3663276786702","2","http://82","0","","82","","","0","",""
"137908","","Pikku-Mervi P","61.0998534590494","24.3654682869902","2","http://82","0","","82","","","0","",""
"137909","","Kasselantie E","61.1015051244481","24.3611970401468","2","http://82","0","","82","","","0","",""
"137910","","Kasselantie P","61.102053578176","24.3608513275548","2","http://82","0","","82","","","0","",""
"137911","","Muuraantie P","61.1049313062236","24.3583596347116","2","http://82","0","","82","","","0","",""
"137912","","Lemola E","61.1078420796233","24.3547238522117","2","http://82","0","","82","","","0","",""
"137913","","Lemola P","61.1081131735614","24.3541558110911","2","http://82","0","","82","","","0","",""
"137914","","Raton th E","61.1125429404333","24.3463800532531","2","http://82","0","","82","","","0","",""
"137915","","Raton th P","61.1130208824819","24.3461274347273","2","http://82","0","","82","","","0","",""
"137916","","Laivarannan th E","61.1154450089352","24.3454284215697","2","http://82","0","","82","","","0","",""
"137917","","Laivarannan th P","61.1160598931035","24.3451105620654","2","http://82","0","","82","","","0","",""
"137918","","Lepaan koulu P","61.1186013876959","24.3371647031842","2","http://82","0","","82","","","0","",""
"137920","","Urheilukenttä E","61.1195568411684","24.3326992313014","2","http://82","0","","82","","","0","",""
"137921","","Urheilukenttä P","61.1205675485728","24.3324557950233","2","http://82","0","","82","","","0","",""
"137922","","Kirkkovalkama E","61.1232446976814","24.3262167156334","3","http://82","0","","82","","","0","",""
"137923","","Kirkkovalkama P","61.1234805057165","24.3252941023696","3","http://82","0","","82","","","0","",""
"137924","","Vanajanniementie E","61.1270049178668","24.3274966489943","3","http://82","0","","82","","","0","",""
"137925","","Vanajanniementie P","61.1271583623036","24.3286968099121","3","http://82","0","","82","","","0","",""
"137926","","Sahan th P","61.1285413083255","24.3333484875633","3","http://82","0","","82","","","0","",""
"137927","","Sahan th E","61.1290446991421","24.3338278242005","3","http://82","0","","82","","","0","",""
"137928","","Kivisilta E","61.1312342052045","24.338663704728","3","http://82","0","","82","","","0","",""
"137929","","Kivisilta P","61.1317586222477","24.3386664076886","3","http://82","0","","82","","","0","",""
"137930","","Pulli E","61.1348403619251","24.3353502159869","3","http://82","0","","82","","","0","",""
"137931","","Pulli P","61.1349951492185","24.3351818489095","3","http://82","0","","82","","","0","",""
"137932","","Tokeensuu E","61.1385490490782","24.33373448966","3","http://82","0","","82","","","0","",""
"137933","","Tokeensuu P","61.1390063543244","24.3336878411381","3","http://82","0","","82","","","0","",""
"137934","","Lahdentaan koulu P","61.1417934141676","24.3362002861642","3","http://82","0","","82","","","0","",""
"137935","","Lahdentaan koulu E","61.142125037716","24.3362928770465","3","http://82","0","","82","","","0","",""
"137936","","Pappila th (Leirikeskus) E","61.1448827164689","24.3378842205276","3","http://82","0","","82","","","0","",""
"137937","","Pappila th (Leirikeskus) P","61.1452555548311","24.3381704034338","3","http://82","0","","82","","","0","",""
"137938","","Kirkkoahontie E","61.1481308651508","24.3392970871059","3","http://82","0","","82","","","0","",""
"137939","","Kirkkoahontie P","61.1485927143391","24.3390812417203","3","http://82","0","","82","","","0","",""
"137940","","Suotaala E","61.1530039094227","24.3424012244124","3","http://82","0","","82","","","0","",""
"137941","","Suotaala P","61.1540242186221","24.3409812941836","3","http://82","0","","82","","","0","",""
"137942","","Tyrvännön kirkko E","61.1548240520196","24.3363229071537","3","http://82","0","","82","","","0","",""
"137943","","Tyrvännön kirkko P","61.1552852554292","24.3358246838814","3","http://82","0","","82","","","0","",""
"137944","","Leppä I","61.1581976619668","24.3307922526776","3","http://82","0","","82","","","0","",""
"137945","","Urheilukenttä P","61.1582705839402","24.3304964391283","3","http://82","0","","82","","","0","",""
"137946","","Alvettula th E","61.2129096917548","24.4975503514446","3","http://109","0","","109","","","0","",""
"137947","","Häränvattantie P","61.2115522703143","24.4947778597796","3","http://109","0","","109","","","0","",""
"137948","","Häränvattantie E","61.2112260451546","24.4941151160219","3","http://109","0","","109","","","0","",""
"137949","","Siltatie P","61.2061042211827","24.4903102531486","3","http://109","0","","109","","","0","",""
"137950","","Siltatie E","61.2055403898752","24.4901246495683","3","http://109","0","","109","","","0","",""
"137951","","Alvettula P","61.2013506155818","24.4867887810811","3","http://109","0","","109","","","0","",""
"137952","","Alvettula E","61.2006582711915","24.4861912821669","3","http://109","0","","109","","","0","",""
"137953","","Väinölänlahti P","61.1990107100375","24.4863579820939","3","http://109","0","","109","","","0","",""
"137954","","Väinölänlahti E","61.1984307976282","24.4866779718818","3","http://109","0","","109","","","0","",""
"137955","","Nurmintie L","61.1943322407515","24.4814194039731","3","http://109","0","","109","","","0","",""
"137956","","Hyömäki I","61.1929223312718","24.4725790115839","3","http://109","0","","109","","","0","",""
"137957","","Hyömäki L","61.1930507634023","24.4714391114379","3","http://109","0","","109","","","0","",""
"137958","","Jääkärinvainiontie L","61.1918420275326","24.4648458293554","3","http://109","0","","109","","","0","",""
"137959","","Jääkärinvainiontie I","61.1891029924612","24.458611469113","3","http://109","0","","109","","","0","",""
"137960","","Hankaanmäki I","61.1879874609939","24.4523614683678","3","http://109","0","","109","","","0","",""
"137961","","Hankaanmäki L","61.1877545039602","24.4516683876582","3","http://109","0","","109","","","0","",""
"137962","","Kuhalantie I","61.1862689446734","24.4473570003674","3","http://109","0","","109","","","0","",""
"137963","","Kuhalantie L","61.1861463384259","24.4464097790836","3","http://109","0","","109","","","0","",""
"137964","","Pälkäneentie","61.1836665932456","24.4160510052752","3","http://109","0","","109","","","0","",""
"137987","","Kankurintie I","61.1825914507604","24.388320207019","3","http://109","0","","109","","","0","",""
"137988","","Palssari L","61.1823591176825","24.4040249623511","3","http://109","0","","109","","","0","",""
"137989","","Palssari I","61.1825787782965","24.4053952182695","3","http://109","0","","109","","","0","",""
"138103","","Hämeenkoski Läntinen th I","61.0254452351465","25.1119990149628","5","http://98","0","","98","","","0","",""
"138104","","Keskustie 81 L","61.0268113467498","25.1205754627673","5","http://98","0","","98","","","0","",""
"138106","","Peltomaa I","61.0275841563963","25.1294571361823","5","http://98","0","","98","","","0","",""
"138107","","Peltomaa L","61.027837754531","25.1313430343907","5","http://98","0","","98","","","0","",""
"138108","","Käikäläntie L","61.0271708096213","25.1356863702151","5","http://98","0","","98","","","0","",""
"138109","","Käikäläntie I","61.0264576087497","25.1376218938996","5","http://98","0","","98","","","0","",""
"138110","","Koivukuja I","61.0244395752723","25.1465172918188","5","http://98","0","","98","","","0","",""
"138111","","Koivukuja L","61.0244034253898","25.1466016765176","5","http://98","0","","98","","","0","",""
"138112","","Hämeenkoski keskusta L","61.0218022424675","25.1542006755937","5","http://98","0","","98","","","0","",""
"138113","","Hämeenkoski keskusta I","61.0212405800991","25.1560496887192","5","http://98","0","","98","","","0","",""
"138114","","Hankalantie L","61.0185205842898","25.1629176139004","5","http://98","0","","98","","","0","",""
"138115","","Hankalantie I","61.0174388357947","25.1641277779642","5","http://98","0","","98","","","0","",""
"138116","","Kukkolantie L","61.0161850616593","25.1664920512853","5","http://98","0","","98","","","0","",""
"138117","","Kukkolantie I","61.0158285858905","25.1671306514844","5","http://98","0","","98","","","0","",""
"138118","","Hämeenkoski Itäinen th L","61.0138425672311","25.1696609168285","5","http://98","0","","98","","","0","",""
"138138","","Ruonsuontie I","61.0827153292864","25.0096440772985","3","http://109","0","","109","","","0","",""
"138139","","Ruonsuontie L","61.083070494218305","25.0090652449489","3","http://109","0","","109","","","0","",""
"138140","","Terveyskeskus E","61.0877795176566","25.0032511573027","3","http://109","0","","109","","","0","",""
"138141","","Terveyskeskus P","61.087930618733","25.0030794183576","3","http://109","0","","109","","","0","",""
"138142","","Untula E","61.0910590444913","25.0004304892059","3","http://109","0","","109","","","0","",""
"138143","","Untula P","61.0916184540287","25.0006044297411","3","http://109","0","","109","","","0","",""
"138144","","Perunantutkimuslaitos E","61.0943209425761","25.0000822923835","3","http://109","0","","109","","","0","",""
"138145","","Perunantutkimuslaitos P","61.0949142431392","24.9997483729598","3","http://109","0","","109","","","0","",""
"138146","","Alvo th P","61.0997078736817","24.9986825852857","3","http://109","0","","109","","","0","",""
"138147","","Alvo th E","61.1004961631541","24.9983324893327","3","http://109","0","","109","","","0","",""
"138148","","Mainiementie P","61.1065436753441","24.9968116882904","3","http://109","0","","109","","","0","",""
"138149","","Mainiementie E","61.1070944849115","24.9968814676702","3","http://109","0","","109","","","0","",""
"138150","","Tuhkasenmäki E","61.1109760184998","24.9992746025083","3","http://109","0","","109","","","0","",""
"138151","","Tuhkasenmäki P","61.1118932879586","24.9992935048232","3","http://109","0","","109","","","0","",""
"138152","","Selinummi E","61.1134205016532","24.9968485683172","3","http://109","0","","109","","","0","",""
"138153","","Selinummi P","61.1138545603374","24.9960159622614","3","http://109","0","","109","","","0","",""
"138154","","Viljanen L","61.1161648457414","24.9909343883175","3","http://109","0","","109","","","0","",""
"138155","","Viljanen I","61.1163268068999","24.9885681273857","3","http://109","0","","109","","","0","",""
"138156","","Sankola I","61.1213815768624","24.9813468745553","3","http://109","0","","109","","","0","",""
"138157","","Sankola L","61.1216733740021","24.9806656607502","3","http://109","0","","109","","","0","",""
"138164","","Porraskoski I","61.2472357630785","24.9427732122365","3","http://109","0","","109","","","0","",""
"138200","","Tuominen E","61.1418204174397","24.7978129300089","3","http://109","0","","109","","","0","",""
"138202","","Tuulos kk L","61.1437765439083","24.7916545277635","3","http://109","0","","109","","","0","",""
"138203","","Hautausmaa","61.1481310290108","24.7862615515984","3","http://109","0","","109","","","0","",""
"138205","","Iso-Veikkola E","61.1566009111756","24.7793555233426","3","http://109","0","","109","","","0","",""
"138207","","Laurila E","61.1607119304618","24.7758814079059","3","http://109","0","","109","","","0","",""
"138209","","Kartanonmäki E","61.1665455772301","24.771728573946","3","http://109","0","","109","","","0","",""
"138211","","Juttilan koulu E","61.1718099318814","24.7670134283716","3","http://109","0","","109","","","0","",""
"138212","","Juttilan koulu P","61.1722324127523","24.766896924199","3","http://109","0","","109","","","0","",""
"138213","","Kopsjoki E","61.1756104724673","24.7607538915779","3","http://109","0","","109","","","0","",""
"138215","","Raunionmäki E","61.1810567810636","24.7604916602121","3","http://109","0","","109","","","0","",""
"138217","","Mieliönoja E","61.1888589217453","24.7590523879944","3","http://109","0","","109","","","0","",""
"138219","","Kaidankorven th E","61.1925823471352","24.7492455274509","3","http://109","0","","109","","","0","",""
"138222","","Pyhäranta th P","61.1976468671765","24.7393058457781","3","http://109","0","","109","","","0","",""
"138229","","Mustila E","61.2178054101897","24.7297225455306","3","http://109","0","","109","","","0","",""
"138239","","Vihavuodentie E","61.256883228455","24.7085223083317","3","http://109","0","","109","","","0","",""
"138240","","Vihavuodentie P","61.2575124059638","24.7097252835496","3","http://109","0","","109","","","0","",""
"138257","","Porras E","61.179794842169","24.6250950316862","3","http://109","0","","109","","","0","",""
"138258","","Porras P","61.1803207755678","24.6254061303289","3","http://109","0","","109","","","0","",""
"138261","","Lehdesmäki E","61.1931338083288","24.643734614197","3","http://109","0","","109","","","0","",""
"138262","","Lehdesmäki P","61.1935696384957","24.6443453347054","3","http://109","0","","109","","","0","",""
"139035","","Pitkäsenkulma P Riihimäki","60.748236457840676","24.7105431622934","4","","0","","694","","","0","",""
"139036","","Väinöläntie P","60.7604566665149","24.6966627185972","3","http://165","0","","165","","","0","",""
"139037","","Maariansillanlenkki P","60.7770622866248","24.6837609016676","3","http://165","0","","165","","","0","",""
"139038","","Suotie E","60.7876449676347","24.6760135722235","3","http://165","0","","165","","","0","",""
"139039","","Suotie P","60.7883804590537","24.6769840519599","3","http://165","0","","165","","","0","",""
"139040","","Kirkkoportintie th L","60.784865996974","24.5310114385995","3","http://165","0","","165","","","0","",""
"139042","","Vehmainen P","60.818596243733","24.3930486603107","3","http://109","0","","109","","","0","",""
"139043","","Kaloinen P","60.8371554330189","24.4047474119038","3","http://109","0","","109","","","0","",""
"139044","","Melkkola E","60.8363475633981","24.6279459387267","3","http://165","0","","165","","","0","",""
"139045","","Rengon palvelupiste E","60.8941499278992","24.2810337919247","2","http://109","0","","109","","","0","",""
"139046","","Rengon palvelupiste P","60.8936412040244","24.2817982002262","2","http://109","0","","109","","","0","",""
"139047","","Renko kirkko I","60.893472519655","24.2858258967862","2","http://109","0","","109","","","0","",""
"139048","","Renko kirkko L","60.8936815037979","24.2867236437708","2","http://109","0","","109","","","0","",""
"139049","","Raitaharju (palvelukoti) I","60.892422712547","24.2900054577499","2","http://109","0","","109","","","0","",""
"139050","","Raitaharju (palvelukoti) L","60.8920833700337","24.2906263256424","2","http://109","0","","109","","","0","",""
"139051","","Rastaanpolku L","60.8912918699879","24.2959856389481","2","http://109","0","","109","","","0","",""
"139054","","Vuohiniemi","60.9326906306241","24.1571208784075","3","http://82","0","","82","","","0","",""
"139055","","Vanha Härkätie","60.9334339433134","24.214353308898","3","http://109","0","","109","","","0","",""
"139057","","Sääksniemen th I","61.0368297374532","24.1962615098325","3","http://82","0","","82","","","0","",""
"139058","","Hyrvälä","60.9925937560008","24.2577789095872","2","http://82","0","","82","","","0","",""
"139059","","Vanha Härkätie th P","60.9797483961935","24.2661704209547","2","http://82","0","","82","","","0","",""
"139060","","Vahteristo I","60.9887364504875","23.9670130944872","3","http://109","0","","109","","","0","",""
"139061","","Rimmilä I","60.9867487520658","24.0517901985101","3","http://109","0","","109","","","0","",""
"139064","","Kaanaankuja","61.0655800175111","24.1355556164576","3","http://109","0","","109","","","0","",""
"139065","","Taulumaa","61.0437075511367","24.1423107284131","3","http://109","0","","109","","","0","",""
"139066","","Lemmetty L","61.068360293885","24.1884860943942","3","http://109","0","","109","","","0","",""
"139067","","Kankainen Kartano E","61.0735332606616","24.1734171258564","3","http://109","0","","109","","","0","",""
"139068","","Kankainen Kartano P","61.0736307468629","24.1731151524941","3","http://109","0","","109","","","0","",""
"139069","","Kutila th I","61.0837126769237","24.1447274437941","3","http://109","0","","109","","","0","",""
"139070","","Kutila th P","61.0845044265933","24.1440207428858","3","http://109","0","","109","","","0","",""
"139071","","Tehtaantie E","61.0901994442822","24.1381846743802","3","http://109","0","","109","","","0","",""
"139072","","Tehtaantie P","61.0903733485129","24.1375802494173","3","http://109","0","","109","","","0","",""
"139074","","Taljala","61.098237213028","24.0442045265241","3","http://109","0","","109","","","0","",""
"139322","","Leppäkoski","60.8635052896691","24.7073918596704","3","http://165","0","","165","","","0","",""
"139323","","Ryttyläntie I","60.8265075380548","24.6724612824104","3","http://165","0","","165","","","0","",""
"139324","","Niinimäki E","60.8299358164802","24.6726724934638","3","http://165","0","","165","","","0","",""
"139325","","Niinimäki P","60.8306125660016","24.6727424113733","3","http://165","0","","165","","","0","",""
"139326","","Suoniemi L","60.8359101233208","24.6760229119829","3","http://165","0","","165","","","0","",""
"139327","","Suoniemi I","60.8368985984291","24.6780302263612","3","http://165","0","","165","","","0","",""
"139328","","Lahtela I","60.8385244736084","24.6826824309252","3","http://165","0","","165","","","0","",""
"139329","","Lahtela L","60.838831525608","24.6835492226498","3","http://165","0","","165","","","0","",""
"139330","","Linna L","60.8391827092904","24.6902728716163","3","http://165","0","","165","","","0","",""
"139331","","Linna I","60.8390584273153","24.6912299148325","3","http://165","0","","165","","","0","",""
"139332","","Kukonnokka I","60.8404049402934","24.7027962452661","3","http://165","0","","165","","","0","",""
"139333","","Kukonnokka L","60.8404707711671","24.7036225567269","3","http://165","0","","165","","","0","",""
"139334","","Linnamäki I","60.8409712110174","24.7106173470722","3","http://165","0","","165","","","0","",""
"139335","","Linnamäki L","60.8412539274281","24.7124288387719","3","http://165","0","","165","","","0","",""
"139336","","Kelhä P","60.8436483317563","24.7217973937668","3","http://165","0","","165","","","0","",""
"139337","","Jussintie","60.8493790491685","24.71721579083","3","http://165","0","","165","","","0","",""
"139338","","Jussintie","60.8503442459511","24.7158612905072","3","http://165","0","","165","","","0","",""
"139339","","Jussintie E","60.8515551770354","24.7141455007417","3","http://165","0","","165","","","0","",""
"139340","","Tiilitehdas P","60.8565142578877","24.7082653964547","3","http://165","0","","165","","","0","",""
"139351","","Tykkivajantie P","60.9133644653882","24.6658378686505","2","http://165","0","","165","","","0","",""
"139352","","Konttila P","60.9091697189663","24.6691812654001","2","http://165","0","","165","","","0","",""
"139353","","Kontiontie","60.9028524159788","24.6748485544329","3","http://165","0","","165","","","0","",""
"139354","","Kontiontie","60.9018657945839","24.6761134512581","3","http://165","0","","165","","","0","",""
"139355","","Hartaila P","60.897732105401","24.6794619581661","3","http://165","0","","165","","","0","",""
"139356","","Hartaila E","60.896754056557","24.6777501824718","3","http://165","0","","165","","","0","",""
"139357","","Huhtola E","60.8936806825473","24.6766775335793","3","http://165","0","","165","","","0","",""
"139358","","Huhtola P","60.8932500582654","24.6774214307104","3","http://165","0","","165","","","0","",""
"139359","","Suikkari P","60.8924442696254","24.683612331633","3","http://165","0","","165","","","0","",""
"139360","","Suikkari E","60.8924171590936","24.6847693994366","3","http://165","0","","165","","","0","",""
"139361","","Kotimäki E","60.892406564286","24.6962462673592","3","http://165","0","","165","","","0","",""
"139362","","Kotimäki P","60.8923709605818","24.6970519381754","3","http://165","0","","165","","","0","",""
"139365","","Sarastontie E","60.8871118657995","24.7251838732774","3","http://165","0","","165","","","0","",""
"139366","","Sarastontie P","60.8867288215039","24.7259593624743","3","http://165","0","","165","","","0","",""
"139367","","Reijonniementie","60.9120398031876","24.5354775897183","2","http://165","0","","165","","","0","",""
"139368","","Reijonniementie","60.9121093114864","24.5346390804602","2","http://165","0","","165","","","0","",""
"139369","","Hakala L","60.9122501268459","24.5284891982516","2","http://165","0","","165","","","0","",""
"139370","","Hakala I","60.9121903391658","24.5283435742724","2","http://165","0","","165","","","0","",""
"139371","","Virala L","60.9102392806298","24.5178287275231","2","http://165","0","","165","","","0","",""
"139372","","Virala I","60.9102811637885","24.5172234754924","2","http://165","0","","165","","","0","",""
"139373","","Torpantie","60.9082192283479","24.5057949020863","2","http://165","0","","165","","","0","",""
"139374","","Kuuslammintie L","60.9064293952336","24.5021859947256","2","http://165","0","","165","","","0","",""
"139375","","Kuuslammintie I","60.9062306945331","24.5018151238112","2","http://165","0","","165","","","0","",""
"139376","","Siankärsäntie P","60.9218480325401","24.547939818922","2","http://165","0","","165","","","0","",""
"139377","","Siankärsäntie E","60.9218145536084","24.5479658494068","2","http://165","0","","165","","","0","",""
"139378","","Turengintie E","60.9138340854724","24.5543312729588","2","http://165","0","","165","","","0","",""
"139381","","Koivutie E","60.9114721083503","24.5576292745487","2","http://165","0","","165","","","0","",""
"139383","","Koverontie E","60.9091051862904","24.5609300029126","2","http://165","0","","165","","","0","",""
"139385","","Tarinmaantie E","60.9011571514323","24.5815115744406","2","http://165","0","","165","","","0","",""
"139387","","Peltola E","60.8988123360824","24.5846966318438","2","http://165","0","","165","","","0","",""
"139389","","Tarinmaa E","60.8954165193492","24.5921495107032","2","http://165","0","","165","","","0","",""
"139390","","Perttula E","60.9599034581867","24.4883390940583","1","http://109","0","","109","","","0","",""
"139391","","Perttula P","60.9599411159463","24.4882059694959","1","http://109","0","","109","","","0","",""
"139392","","Miemalan koulu E","60.9588674722599","24.4933291878012","1","http://109","0","","109","","","0","",""
"139393","","Miemalan koulu P","60.9586159030484","24.4939518494497","1","http://109","0","","109","","","0","",""
"139394","","Vihtavuori P","60.9546999538023","24.5040334591353","1","http://109","0","","109","","","0","",""
"139395","","Vihtavuori E","60.9542672160585","24.5050509248106","1","http://109","0","","109","","","0","",""
"139396","","Palvaanlinna P","60.9517335449002","24.5103689979588","1","http://109","0","","109","","","0","",""
"139397","","Palvaanlinna E","60.9523244538568","24.5092851072689","1","http://109","0","","109","","","0","",""
"139399","","Nikkilä E","60.9467886693801","24.5195093241899","1","http://109","0","","109","","","0","",""
"139400","","Ylänne P","60.9444704316724","24.522854681687","1","http://109","0","","109","","","0","",""
"139402","","Raimolahti P","60.9391708742121","24.5292302729416","2","http://165","0","","165","","","0","",""
"139403","","Raimolahti E","60.9388460863655","24.5300107901921","2","http://165","0","","165","","","0","",""
"139404","","Eskola E","60.9370199933063","24.5343504361133","2","http://165","0","","165","","","0","",""
"139405","","Eskola P","60.9368245714888","24.5348137961136","2","http://165","0","","165","","","0","",""
"139406","","Häkinen P","60.9353894029068","24.5382017951816","2","http://165","0","","165","","","0","",""
"139410","","Kiianlinna P","60.92900186229165","24.57712890408908","2","http://165","0","","165","","","0","",""
"139412","","Raunistola P","60.9253284617268","24.5856927353553","2","http://165","0","","165","","","0","",""
"139413","","Raunistola E","60.925198576194","24.5859215655712","2","http://165","0","","165","","","0","",""
"139414","","Inkolinna E","60.9235538427073","24.5892707431165","2","http://165","0","","165","","","0","",""
"139415","","Heinäjoki th I","60.9540290235265","24.6043280605179","2","http://165","0","","165","","","0","",""
"139416","","Paistianmäki L","60.9518002409093","24.618327839982","2","http://165","0","","165","","","0","",""
"139417","","Ojalantie","60.9522880776077","24.6363745906919","2","http://165","0","","165","","","0","",""
"139418","","Ojalantie","60.9524956815049","24.6370045773252","2","http://165","0","","165","","","0","",""
"139420","","Latomäentie","60.9513260257932","24.6457108970738","2","http://165","0","","165","","","0","",""
"139421","","Niilontie","60.9503211757718","24.6746926078811","2","http://165","0","","165","","","0","",""
"139422","","Niilontie","60.9496681227841","24.6757335489695","2","http://165","0","","165","","","0","",""
"139425","","Sandvikintie","60.9498926395513","24.7160296025134","3","http://165","0","","165","","","0","",""
"139426","","Hakoinen P","60.8806328678933","24.5756083662517","3","http://165","0","","165","","","0","",""
"139427","","Hakoinen E","60.8809198835805","24.5765230207958","3","http://165","0","","165","","","0","",""
"139428","","Kuotolantie P","60.8848372103159","24.5869154500956","3","http://165","0","","165","","","0","",""
"139429","","Kuotolantie E","60.88519490004","24.5873014861661","3","http://165","0","","165","","","0","",""
"139430","","Räikälä P","60.8873983851177","24.5953692349566","3","http://165","0","","165","","","0","",""
"139431","","Räikälä E","60.8878948344905","24.5958144324639","3","http://165","0","","165","","","0","",""
"139433","","Janakkala kk P","60.8961107057347","24.5935051775212","2","http://165","0","","165","","","0","",""
"139434","","VPK P","60.8983531037844","24.596928190595","2","http://165","0","","165","","","0","",""
"139435","","VPK E","60.8987142648524","24.5974459756686","2","http://165","0","","165","","","0","",""
"139436","","Monikkala P","60.9027318886169","24.6056255808792","2","http://165","0","","165","","","0","",""
"139437","","Monikkala E","60.9030204308717","24.6062048064881","2","http://165","0","","165","","","0","",""
"139438","","Nuoliala P","60.9077085452155","24.6116978027888","2","http://165","0","","165","","","0","",""
"139439","","Nuoliala E","60.9085089264196","24.6115230353352","2","http://165","0","","165","","","0","",""
"139440","","Mehtola E","60.9118210735131","24.6115046213531","2","http://165","0","","165","","","0","",""
"139441","","Mehtola P","60.9124493182975","24.6118181223126","2","http://165","0","","165","","","0","",""
"139442","","Mansikkapellontie E","60.9171657270072","24.6120976055247","2","http://165","0","","165","","","0","",""
"139443","","Turengintie E","60.9197073030797","24.6130138916059","2","http://165","0","","165","","","0","",""
"139444","","Jokimaa E","60.8649693626771","24.8721558067869","3","http://165","0","","165","","","0","",""
"139445","","Kuusenvuorentie E","60.8715963143077","24.7787162394085","3","http://165","0","","165","","","0","",""
"139446","","Mallinkainen L","60.908708404067","24.8058383479554","3","http://165","0","","165","","","0","",""
"139447","","Jokimaantie L","60.8769183903165","24.8710175834558","3","http://165","0","","165","","","0","",""
"139457","","Saarenko P","61.0955284661073","24.808883323414","3","http://109","0","","109","","","0","",""
"139458","","Tervalammentie E","61.0993820271442","24.8069996960347","3","http://109","0","","109","","","0","",""
"139459","","Tervalammentie P","61.1004004706853","24.8074222669818","3","http://109","0","","109","","","0","",""
"139460","","Mäntynummi I","61.1103619805806","24.816417300759","3","http://109","0","","109","","","0","",""
"139461","","Mäntynummi L","61.1108382541716","24.8172210061901","3","http://109","0","","109","","","0","",""
"139462","","Maaherrantie L","61.1130158964077","24.8216307155331","3","http://109","0","","109","","","0","",""
"139463","","Maaherrantie I","61.1134586897979","24.8227237303961","3","http://109","0","","109","","","0","",""
"139464","","Kirjasto","61.1158220277037","24.8298980524548","3","http://109","0","","109","","","0","",""
"139465","","Kirjasto","61.1160354115088","24.8310967051783","3","http://109","0","","109","","","0","",""
"139466","","Nihattula th L","61.0179813518175","24.3713639179791","2","http://82","0","","82","","","0","",""
"139467","","Nihattula I","61.0195489342982","24.3581763807929","2","http://82","0","","82","","","0","",""
"139468","","Nihattula L","61.0195999645311","24.3576097240834","2","http://82","0","","82","","","0","",""
"139469","","Armijärven mutka I","61.0185444756917","24.3492734158104","2","http://82","0","","82","","","0","",""
"139470","","Armijärven mutka P","61.0188462005309","24.3483057516505","2","http://82","0","","82","","","0","",""
"139471","","Männistöntie E","61.023586258433","24.3435356142756","2","http://82","0","","82","","","0","",""
"139472","","Männistöntie P","61.023914582449","24.342948870239","2","http://82","0","","82","","","0","",""
"139473","","Vihtola I","61.0272979355937","24.3297754486658","2","http://82","0","","82","","","0","",""
"139474","","Vihtola L","61.0280841652752","24.3264800769979","2","http://82","0","","82","","","0","",""
"139475","","Nikkilä I","61.0292197637902","24.3157827715353","2","http://82","0","","82","","","0","",""
"139476","","Nikkilä L","61.0293007606401","24.3147778381268","2","http://82","0","","82","","","0","",""
"139477","","Ovaskainen I","61.029410257435","24.3065504459777","2","http://82","0","","82","","","0","",""
"139478","","Ovaskainen L","61.0294173779933","24.3053451850403","2","http://82","0","","82","","","0","",""
"139479","","Mällintie I","61.0294648157633","24.2971861848699","2","http://82","0","","82","","","0","",""
"139480","","Mällintie P","61.0294849179757","24.2961286344683","2","http://82","0","","82","","","0","",""
"139481","","Sattula I","61.0301978756845","24.2866967436296","2","http://82","0","","82","","","0","",""
"139482","","Sattula L","61.0302813702527","24.2856617067633","2","http://82","0","","82","","","0","",""
"139483","","Kalvolantie","61.029518426658","24.281017591627","2","http://82","0","","82","","","0","",""
"139484","","Merventie P","61.052700554917","24.3676772903464","2","http://82","0","","82","","","0","",""
"139485","","Parolan koulut I","61.0543633084577","24.360278861503","2","http://82","0","","82","","","0","",""
"139486","","Parolan koulut L","61.0545964601139","24.3596670466527","2","http://82","0","","82","","","0","",""
"139487","","Kaskentie I","61.0563217716855","24.3549354608631","2","http://82","0","","82","","","0","",""
"139488","","Myllytie E","61.0591409834805","24.3466159655536","2","http://82","0","","82","","","0","",""
"139489","","Myllytie P","61.0592839783224","24.3464266618456","2","http://82","0","","82","","","0","",""
"139490","","Nanso Parola","61.0603699500793","24.344827727353","2","http://82","0","","82","","","0","",""
"139491","","Ihaniemi I","61.0592456617563","24.3068399745723","2","http://82","0","","82","","","0","",""
"139492","","Ihaniemi L","61.0585830928838","24.3054958131285","2","http://82","0","","82","","","0","",""
"139493","","Tehtaantie","61.0617548172724","24.3426883558402","2","http://82","0","","82","","","0","",""
"139498","","Rajamäentie E","61.1436315576658","24.5711728966433","3","http://109","0","","109","","","0","",""
"139499","","Rajamäentie P","61.143958828217","24.5711984502206","3","http://109","0","","109","","","0","",""
"139500","","Okerla E","61.1466297781516","24.5734574030142","3","http://109","0","","109","","","0","",""
"139501","","Okerla P","61.1469647381887","24.5743599947607","3","http://109","0","","109","","","0","",""
"139502","","Hahkialankuja","61.1493614232211","24.5832855365315","3","http://109","0","","109","","","0","",""
"139504","","Sahankyläntie","61.0982096407813","24.6241588460205","3","http://109","0","","109","","","0","",""
"139513","","Rinnetie L","61.17385978528091","24.578509781133395","3","http://109","0","","109","","","0","",""
"139514","","Tampereentie/V12 P","61.1638032774261","24.6604564213653","3","http://109","0","","109","","","0","",""
"139515","","Sotjala P","61.1697242513491","24.6631398433468","3","http://109","0","","109","","","0","",""
"139516","","Sotjala E","61.170804204427","24.6622323059572","3","http://109","0","","109","","","0","",""
"139519","","Pyhäjärvenkuja","61.1565825264329","24.7349823387676","3","http://109","0","","109","","","0","",""
"139520","","Pyhäjärvenkuja","61.1565025374061","24.7377557975405","3","http://109","0","","109","","","0","",""
"139560","","Torvoila E","61.2529696088665","24.5571496470368","3","http://109","0","","109","","","0","",""
"139747","","Ronnintie","61.0981022209402","25.1889007750621","3","http://109","0","","109","","","0","",""
"153816","","Pihkatie","60.98702940500474","25.501049848433098","6","","0","","98","","","0","","3"
"153817","","Pihkatie","60.98728253182977","25.50232544102976","6","","0","","98","","","0","","3"
"153818","","Tervatie","60.989713283968584","25.507491858175417","6","","0","","98","","","0","","3"
"153819","","Terveystie","60.990512114310036","25.512405363476944","6","","0","","98","","","0","","3"
"153826","","Terveystie","60.99061054794379","25.512330563237185","6","","0","","98","","","0","","3"
"153827","","Tervatie","60.98963606771704","25.50772472777551","6","","0","","98","","","0","","3"
"153835","","Kansankatu E","60.98917096415701","25.51628017611655","6","","0","","98","","","0","","3"
"153836","","Kansankatu P","60.98864367617554","25.516619871784716","6","","0","","98","","","0","","3"
"153883","","Salpaharjuntie","60.98607869150122","25.497133166960218","6","","0","","98","","","0","","3"
"153884","","Salpaharjuntie","60.98599978285893","25.497556473401623","6","","0","","98","","","0","","3"
"153904","","Korkeakoulukeskus P","60.977433","24.476276","1","http://109","0","","109","","","0","",""
"153907","","Matintie L","60.9982753651965","24.4350959639339","1","http://109","0","","109","","","0","",""
"153908","","Matintie I","60.9986621031962","24.4333911335689","1","http://109","0","","109","","","0","",""
"153910","","Jäähalli P","60.9963509213541","24.4316874522992","1","http://109","0","","109","","","0","",""
"153911","","Rinkelinmäki P","60.9984041778305","24.4284047880436","1","http://109","0","","109","","","0","",""
"153912","","Jäähalli E","60.9962535352403","24.4318423889614","1","http://109","0","","109","","","0","",""
"153913","","Pullerin Kenttä E","61.0004051109257","24.4300380804248","1","http://109","0","","109","","","0","",""
"153914","","Pullerin kenttä P","61.0000675994269","24.4306215781724","1","http://109","0","","109","","","0","",""
"153915","","Suomen kasarmit I","60.9933579169759","24.4495661588757","1","http://109","0","","109","","","0","",""
"153916","","Suomen kasarmit L","60.9933677790404","24.4496158578993","1","http://109","0","","109","","","0","",""
"153917","","Lepistöntie I","60.9645425982256","24.5323439070921","1","http://109","0","","109","","","0","",""
"153918","","Luhtalemmikintie I","60.9634397762884","24.536275444216","1","http://109","0","","109","","","0","",""
"153920","","Käikälänpuisto E","60.9695501328545","24.5404524245448","1","http://109","0","","109","","","0","",""
"153921","","Suvantotie L","60.9677037962158","24.554670830233","1","http://109","0","","109","","","0","",""
"153923","","Solvik L","60.9701977806715","24.550349972714","1","http://109","0","","109","","","0","",""
"153926","","Mantereenlinnantie L","60.9708581363547","24.544242959844","1","http://109","0","","109","","","0","",""
"153928","","Rautaruukintie P","60.96914702260696","24.539418251677994","1","","0","","109","","","0","","3"
"153929","","Rautaruukintie E","60.9681287172004","24.5376532173496","1","http://109","0","","109","","","0","",""
"153930","","Käikälänpuisto P","60.96972178475318","24.540941746399493","1","","0","","109","","","0","","3"
"153931","","Ruukinpuisto E","60.9663817193073","24.5341090041629","1","http://109","0","","109","","","0","",""
"153932","","Keskusvankila P","61.018101562218376","24.403239089784755","1","http://109","0","","109","","","0","","3"
"153933","","Kiltti E","61.0128250083099","24.3995298859047","1","http://109","0","","109","","","0","",""
"153934","","Katinen E","60.996954333259","24.5024751073752","1","http://109","0","","109","","","0","",""
"153935","","Kuhatie I","60.9647217308202","24.5706168950773","1","http://109","0","","109","","","0","",""
"153936","","Kuhatie L","60.9647423396681","24.5708385345268","1","http://109","0","","109","","","0","",""
"153937","","Aulangontorppa E","61.0177000274592","24.500973483781","1","http://109","0","","109","","","0","",""
"153938","","Puusepänkatu L","60.98727380208149","24.49665951226186","1","","0","","109","","","0","",""
"153940","","Katumantie P","60.9862430912117","24.5069230537683","1","http://109","0","","109","","","0","",""
"153941","","Mansikkapuisto I","60.9860993640512","24.5087751596727","1","http://109","0","","109","","","0","",""
"153944","","Lintumäki P","61.0050141429853","24.4277619654464","1","http://109","0","","109","","","0","",""
"153945","","Lintumäki E","61.0044754117035","24.4268774347094","1","http://109","0","","109","","","0","",""
"153946","","Teerentie I","61.0059740292796","24.4312625543607","1","http://109","0","","109","","","0","",""
"153947","","Teerentie L","61.0060160395752","24.4314215505312","1","http://109","0","","109","","","0","",""
"153948","","Ravirata P","61.0024594261418","24.4264707919538","1","http://109","0","","109","","","0","",""
"153949","","Ravirata E","61.001888106465","24.427479203815","1","http://109","0","","109","","","0","",""
"153951","","Jaakkola I","60.982941736531","24.4474527563914","1","http://109","0","","109","","","0","",""
"153956","","Nuppola P","60.9842252600932","24.4442184456635","1","http://109","0","","109","","","0","",""
"153957","","Nuppola E","60.984168025767","24.444371522941","1","http://109","0","","109","","","0","",""
"153958","","Tavastia P","60.9856787681385","24.441399921285","1","http://109","0","","109","","","0","",""
"153959","","Louhentie E","60.9876480812963","24.3944825272432","1","http://109","0","","109","","","0","",""
"153960","","Louhentie P","60.9877036326811","24.3943886595612","1","http://109","0","","109","","","0","",""
"153961","","Jätevesilaitos E","61.0185156458843","24.4159460822449","1","http://109","0","","109","","","0","",""
"153962","","Jätevesilaitos P","61.0184546470328","24.4159077480243","1","http://109","0","","109","","","0","",""
"153968","","Kurkitie P","60.96449852637","24.5569390283509","1","http://109","0","","109","","","0","",""
"153969","","Rantatie L","60.96633796965252","24.55801366329672","1","http://109","0","","109","","","0","","3"
"153971","","Käikäläntie I","60.9642785088794","24.5525685544144","1","http://109","0","","109","","","0","",""
"153972","","Pietiläntie L","61.0143977059048","24.4022778357721","1","http://109","0","","109","","","0","",""
"153973","","Mantereenvuori E","60.9826453954863","24.5199475646847","1","http://109","0","","109","","","0","",""
"153977","","Parolantie I","60.9969946905294","24.4407172903154","1","http://109","0","","109","","","0","",""
"153978","","Parolantie L","60.9970460050436","24.4404926971048","1","http://109","0","","109","","","0","",""
"153979","","Hanhikkitie P","61.0162443155596","24.5130527599247","1","http://109","0","","109","","","0","",""
"153984","","Angervotie P","61.0146134357445","24.5154156883348","1","http://109","0","","109","","","0","",""
"153985","","Ruununmyllyntie P","61.0128320149733","24.5176779954117","1","http://109","0","","109","","","0","",""
"153986","","Rautamäenpuisto L","61.0129915540081","24.5220483472928","1","http://109","0","","109","","","0","",""
"153987","","Ruununmyllyn koulu L","61.0136000923645","24.5282204150062","1","http://109","0","","109","","","0","",""
"153988","","Kukostensyrjä L","61.0173404682602","24.5088276516748","1","http://109","0","","109","","","0","",""
"153991","","Kiltti L","61.0132988100191","24.3981313220786","1","http://109","0","","109","","","0","",""
"153993","","Viiala L","60.9749143367853","24.3935645196614","1","http://109","0","","109","","","0","",""
"153994","","Loimalahti","60.9700515020076","24.3827304271415","1","http://109","0","","109","","","0","",""
"153995","","Kolkanmäki L","60.9730262779706","24.3888719227082","1","http://109","0","","109","","","0","",""
"153996","","Kolkanmäki I","60.9731835470363","24.3901994601303","1","http://109","0","","109","","","0","",""
"153997","","Mansikkapuisto L","60.9861403164005","24.5094288520751","1","http://109","0","","109","","","0","",""
"153999","","Luukkaanlahti P","60.99163762952824","24.485129882484895","1","","0","","109","","","0","",""
"154001","","Linnanpuisto E","61.0015705244884","24.4570656580515","1","http://109","0","","109","","","0","",""
"154002","","Linnanpuisto P","61.0014888446849","24.4571309300379","1","http://109","0","","109","","","0","",""
"154003","","Niittykatu L","61.0000301450312","24.4598804910204","1","http://109","0","","109","","","0","",""
"154006","","Tavastia E","60.9868006562136","24.440219930335","1","http://109","0","","109","","","0","",""
"154007","","Ansionmäki I","60.9817015119574","24.4544535834588","1","http://109","0","","109","","","0","",""
"154010","","Kutala P","61.0001675770828","24.4973318974196","1","http://109","0","","109","","","0","",""
"154011","","Kutala E","61.0002064642608","24.4973881058709","1","http://109","0","","109","","","0","",""
"154012","","Honkalanpuisto L","61.0036464804325","24.4971809640992","1","http://109","0","","109","","","0","",""
"154014","","Honkalanpuisto I","61.0032493295892","24.4946702813623","1","http://109","0","","109","","","0","",""
"154015","","Honkalankatu E","61.0024796943649","24.4973402744959","1","http://109","0","","109","","","0","",""
"154016","","Honkalankatu P","61.0021436536933","24.4978481590097","1","http://109","0","","109","","","0","",""
"154017","","Äikäälä L","60.966778","24.577427","1","http://109","0","","109","","","0","",""
"154018","","Hallintie I","61.0063947217287","24.4370252080174","1","http://109","0","","109","","","0","",""
"154019","","Hallintie L","61.0063857941865","24.4371279615284","1","http://109","0","","109","","","0","",""
"154020","","Ojoinen L","61.0073357097442","24.4418317322826","1","http://109","0","","109","","","0","",""
"154021","","Ojoinen I","61.007828437535","24.443275943271","1","http://109","0","","109","","","0","",""
"154022","","Ojoistenpuisto I","61.0083849971025","24.4448832953541","1","http://109","0","","109","","","0","",""
"154023","","Tarhapuisto P","61.0092888617985","24.4422146908922","1","http://109","0","","109","","","0","",""
"154025","","Ojoisten koulu E","61.0095426677627","24.4403430595927","1","http://109","0","","109","","","0","",""
"154026","","Kaupunginpuisto E","61.0105719877738","24.4469691869636","1","http://109","0","","109","","","0","",""
"154027","","Kaupunginpuisto P","61.011351835709","24.4463583060916","1","http://109","0","","109","","","0","",""
"154028","","Hernetie P","61.0136537654204","24.4442241715281","1","http://109","0","","109","","","0","",""
"154029","","Hernetie E","61.0132594251097","24.4447546362785","1","http://109","0","","109","","","0","",""
"154030","","Linnan Kasarmit P","61.0063093652342","24.4530469989293","1","http://109","0","","109","","","0","",""
"154031","","Linnan Kasarmit E","61.0063583636653","24.4530057626264","1","http://109","0","","109","","","0","",""
"154032","","Turkistie P","61.0127915188169","24.4619296544746","1","http://109","0","","109","","","0","",""
"154033","","Turkistie E","61.0125949434481","24.4623702519454","1","http://109","0","","109","","","0","",""
"154036","","Sairionpuisto P","61.0111978033761","24.4658696226542","1","http://109","0","","109","","","0","",""
"154037","","Sairionpuisto E","61.0107222917888","24.4678438265776","1","http://109","0","","109","","","0","",""
"154038","","Sairionmäki P","61.0086965161312","24.4736802438591","1","http://109","0","","109","","","0","",""
"154041","","Antreanpuisto E","61.0106538843382","24.437605851703","1","http://109","0","","109","","","0","",""
"154042","","Ojoistenpuisto L","61.008251532363","24.4444944779152","1","http://109","0","","109","","","0","",""
"154043","","Häitilänpuisto I","60.9619675734979","24.5410729920658","1","http://109","0","","109","","","0","",""
"154045","","Hakalanniemi I","61.017501055217","24.4352771264804","1","http://109","0","","109","","","0","",""
"154046","","Hakalanniemi L","61.0162905359406","24.4388199273808","1","http://109","0","","109","","","0","",""
"154047","","Kirstulan silta I","61.0192819870764","24.4273987424634","1","http://109","0","","109","","","0","",""
"154048","","Kirstulan silta L","61.0192025748252","24.4278021924483","1","http://109","0","","109","","","0","",""
"154049","","Aulangontie P","61.023253097619","24.4467808923241","1","http://109","0","","109","","","0","",""
"154051","","Aulanko  hotellin piha","61.0228290163566","24.4454650159665","1","http://109","0","","109","","","0","",""
"154052","","Karlbergintie P","61.0154136060577","24.4536330953049","1","http://109","0","","109","","","0","",""
"154053","","Karlbergintie E","61.0153973174425","24.4536618297644","1","http://109","0","","109","","","0","",""
"154054","","Hautausmaa P","60.993695969543","24.4048014191092","1","http://109","0","","109","","","0","",""
"154055","","Hautausmaa E","60.9927563321244","24.4053256172404","1","http://109","0","","109","","","0","",""
"154056","","Korsutie I","60.9901527983514","24.4040580135252","1","http://109","0","","109","","","0","",""
"154057","","Korsutie L","60.9898726212034","24.4021297326547","1","http://109","0","","109","","","0","",""
"154058","","Hämeenlinna Keskussairaala B","60.98893930127084","24.415890224511116","1","http://109","0","","109","","","0","",""
"154059","","Hämeenlinna Keskussairaala A","60.98928559782535","24.415870198394536","1","http://109","0","","109","","","0","",""
"154060","","Härkäpuisto L","61.0041004400227","24.4210615208934","1","http://109","0","","109","","","0","",""
"154061","","Ostoskeskus P","61.0067478628176","24.4190940777096","1","http://109","0","","109","","","0","",""
"154062","","Ostoskeskus E","61.0069713458793","24.4192309473064","1","http://109","0","","109","","","0","",""
"154063","","Tiiriö I","61.0056359496637","24.4154286424201","1","http://109","0","","109","","","0","",""
"154067","","Huvila P","60.9907039880304","24.505532009771","1","http://109","0","","109","","","0","",""
"154068","","Huvila E","60.9914317907341","24.5048732095665","1","http://109","0","","109","","","0","",""
"154069","","Lakee I","60.9870797467742","24.3919775642432","1","http://109","0","","109","","","0","",""
"154070","","Lakee L","60.9866203102529","24.3907174167554","1","http://109","0","","109","","","0","",""
"154071","","Talvikintie I","60.9817314936076","24.3817551266389","1","http://109","0","","109","","","0","",""
"154072","","Talvikintie L","60.9811700566548","24.3797785314884","1","http://109","0","","109","","","0","",""
"154073","","Esikontie I","60.9805886226693","24.3773192706201","1","http://109","0","","109","","","0","",""
"154074","","Esikontie L","60.9802483049285","24.3760115014698","1","http://109","0","","109","","","0","",""
"154075","","Hirsimäki I","60.9792271904609","24.3735516808487","1","http://109","0","","109","","","0","",""
"154076","","Karhuntie L","61.0124041476527","24.4401506216902","1","http://109","0","","109","","","0","",""
"154077","","Kettumäki L","61.0134578309985","24.4354721181999","1","http://109","0","","109","","","0","",""
"154078","","Laatokantie E","61.0117899231834","24.4323052072163","1","http://109","0","","109","","","0","",""
"154080","","Antreantie","61.0134722245446","24.428981981591","1","http://109","0","","109","","","0","",""
"154082","","Valkamapuisto I","60.9648715430628","24.5639769630584","1","http://109","0","","109","","","0","",""
"154083","","Valkamapuisto L","60.9647759990761","24.5643844433969","1","http://109","0","","109","","","0","",""
"154085","","Idänpää I","61.0083336565263","24.5062280574067","1","http://109","0","","109","","","0","",""
"154086","","Idänpää E","61.0094514548433","24.5052704112735","1","http://109","0","","109","","","0","",""
"154087","","Jokiaro E","61.0113258117019","24.5024779971188","1","http://109","0","","109","","","0","",""
"154088","","Laaniitty E","61.012226698453","24.499588049285","1","http://109","0","","109","","","0","",""
"154090","","Saarenpäänkatu E","61.0142458302884","24.4982256391017","1","http://109","0","","109","","","0","",""
"154091","","Kuusistonportti I","61.0092589768782","24.5111480144567","1","http://109","0","","109","","","0","",""
"154092","","Rääpiälä P","61.0042071189995","24.3862065585171","1","http://109","0","","109","","","0","",""
"154093","","Rääpiälä E","61.0036350310819","24.3867574826672","1","http://109","0","","109","","","0","",""
"154094","","Vuorentaka","61.0019556584473","24.3909285433424","1","http://109","0","","109","","","0","",""
"154095","","Kurala L","60.988367293744","24.3952366100763","1","http://109","0","","109","","","0","",""
"154096","","Kurala I","60.9886242597713","24.3958865711117","1","http://109","0","","109","","","0","",""
"154099","","Onnela I","60.9755788062437","24.4683830283377","1","http://109","0","","109","","","0","",""
"154101","","Vanajantie E","60.983624195448","24.502163883447","1","http://109","0","","109","","","0","",""
"154108","","Patterihaka P","61.0061227965444","24.5061013254158","1","http://109","0","","109","","","0","",""
"154109","","Patterihaka E","61.006880825314","24.5055976055896","1","http://109","0","","109","","","0","",""
"154110","","Lehmustie L","60.980532","24.473567","1","http://109","0","","109","","","0","",""
"154112","","Virveli P","60.9824487923929","24.4677221290577","1","http://109","0","","109","","","0","",""
"154113","","Terveyskeskus L","60.9980223402062","24.474468826501","1","http://109","0","","109","","","0","",""
"154114","","Terveyskeskus I","60.9985020261188","24.476120734865","1","http://109","0","","109","","","0","",""
"154115","","Pikkujärvi P","60.9973446203284","24.4789971291499","1","http://109","0","","109","","","0","",""
"154117","","Keinusaari E","60.9962240067366","24.4809194696192","1","http://109","0","","109","","","0","",""
"154119","","Hämeentie E","61.0000384577548","24.4776392928936","1","http://109","0","","109","","","0","",""
"154120","","Hämeentie P","61.0004265271577","24.4774391551551","1","http://109","0","","109","","","0","",""
"154121","","Pukutehdas L","61.0015241428917","24.4850200035998","1","http://109","0","","109","","","0","",""
"154122","","Liikekatu E","61.0009798587518","24.4865771049371","1","http://109","0","","109","","","0","",""
"154123","","Ortela I","61.002577953381","24.4874816802963","1","http://109","0","","109","","","0","",""
"154124","","Hätilä P","61.0036504588072","24.4868414927858","1","http://109","0","","109","","","0","",""
"154125","","Hätilä E","61.0037131693277","24.4866168856591","1","http://109","0","","109","","","0","",""
"154126","","Keilakatu P","60.9997940581745","24.4882804573977","1","http://109","0","","109","","","0","",""
"154128","","Sairionmäki E","61.0082652723926","24.4746781128765","1","http://109","0","","109","","","0","",""
"154129","","Tuomela P","61.0066949400511","24.4782041389225","1","http://109","0","","109","","","0","",""
"154130","","Tuomela E","61.0061563606956","24.4794039272006","1","http://109","0","","109","","","0","",""
"154131","","Hätilän yläaste E","61.0046696238995","24.482749738563","1","http://109","0","","109","","","0","",""
"154132","","Hätilän yläaste P","61.0051583486887","24.4816431223503","1","http://109","0","","109","","","0","",""
"154134","","Hätiläntori L","61.0033676054916","24.4906222662014","1","http://109","0","","109","","","0","",""
"154135","","Hämeenlinna rautatieasema A","61.001687670772","24.4787305003681","1","http://109","0","","109","","","0","",""
"154136","","Hämeenlinna rautatieasema F","61.0019670815983","24.4783409629611","1","http://109","0","","109","","","0","",""
"154137","","Hämeenlinna rautatieasema D","61.0017922642234","24.4774220167766","1","http://109","0","","109","","","0","",""
"154138","","Hämeenlinna rautatieasema E","61.001924612562","24.4776900232086","1","http://109","0","","109","","","0","",""
"154139","","Hämeenlinna rautatieasema B","61.0021301180721","24.4773245818629","1","http://109","0","","109","","","0","",""
"154140","","Hämeenlinna rautatieasema C","61.0019887022379","24.4770514284051","1","http://109","0","","109","","","0","",""
"154141","","Pikkujärvi E","60.9986038306613","24.4782581631387","1","http://109","0","","109","","","0","",""
"154142","","Tuiskula P","61.0326495312336","24.4131649863999","2","http://109","0","","109","","","0","",""
"154143","","Tuiskula E","61.0324611072384","24.4137540724305","1","http://109","0","","109","","","0","",""
"154144","","Puistonmäki E","61.0175718624094","24.4242604169164","1","http://109","0","","109","","","0","",""
"154145","","Taimistontie I","60.9886541983271","24.4320691677984","1","http://109","0","","109","","","0","",""
"154146","","Poltinahon yläaste L","60.9898316176236","24.4335590109838","1","http://109","0","","109","","","0","",""
"154148","","Sisälähetys I","60.99266770413","24.4463488300748","1","http://109","0","","109","","","0","",""
"154149","","Myllymäki I","60.99173825026","24.4420986923906","1","http://109","0","","109","","","0","",""
"154150","","Myllymäki L","60.9917139449852","24.4419836636964","1","http://109","0","","109","","","0","",""
"154151","","Punaportti P","60.9891234189988","24.4393275435141","1","http://109","0","","109","","","0","",""
"154152","","Punaportti E","60.9890959886414","24.4393196156618","1","http://109","0","","109","","","0","",""
"154153","","Jääskentie","61.0143093818679","24.4277915001198","1","http://109","0","","109","","","0","",""
"154155","","Poltinahon kasarmit P","60.9929000338051","24.4372559103786","1","http://109","0","","109","","","0","",""
"154156","","Poltinahon kasarmit E","60.9927612776989","24.4374782553149","1","http://109","0","","109","","","0","",""
"154159","","Kaurialan lukio I","60.9948995974236","24.4498183921256","1","http://109","0","","109","","","0","",""
"154160","","Kaurialan lukio L","60.9947702670696","24.4504420001027","1","http://109","0","","109","","","0","",""
"154162","","Kauriala L","60.9958159464178","24.4458647456579","1","http://109","0","","109","","","0","",""
"154163","","Kauriala I","60.9958477973252","24.4457279236788","1","http://109","0","","109","","","0","",""
"154164","","Katinen P","60.9973374555696","24.5018807192543","1","http://109","0","","109","","","0","",""
"154166","","Ystävyydenpuisto P","60.9967872450223","24.4716605510085","1","http://109","0","","109","","","0","",""
"154167","","Hämeenlinna linja-autoasema A","60.9954244730243","24.4665166584305","1","http://109","0","","109","","","0","",""
"154169","","Hämeenlinna linja-autoasema C","60.9952462437066","24.4656524863122","1","http://109","0","","109","","","0","",""
"154170","","Hämeensaari I","60.993374085672","24.4620372145423","1","http://109","0","","109","","","0","",""
"154171","","Hämeensaari L","60.9932403776488","24.4606228345219","1","http://109","0","","109","","","0","",""
"154172","","Tuokkola P","60.9971481768608","24.3993085057982","1","http://109","0","","109","","","0","",""
"154173","","Tuokkola E","60.9967567604526","24.400245953572","1","http://109","0","","109","","","0","",""
"154174","","Sammonpuisto P","60.9849727500105","24.3988443389504","1","http://109","0","","109","","","0","",""
"154175","","Sammonpuisto E","60.9850113819265","24.3987753222779","1","http://109","0","","109","","","0","",""
"154176","","Viiala I","60.9752479212149","24.3947142894024","1","http://109","0","","109","","","0","",""
"154177","","Leinuntie L","60.9777772598076","24.4020261374925","1","http://109","0","","109","","","0","",""
"154178","","Leinuntie I","60.9776601713289","24.4017317075068","1","http://109","0","","109","","","0","",""
"154179","","Härmiälä L","60.9791068713337","24.4055597758875","1","http://109","0","","109","","","0","",""
"154180","","Härmiälä I","60.9789069839757","24.4050154483826","1","http://109","0","","109","","","0","",""
"154181","","Leinunpuisto L","60.9803876877882","24.4104021635482","1","http://109","0","","109","","","0","",""
"154182","","Vanajan asevelikylä E","60.9803722790312","24.4115170198756","1","http://109","0","","109","","","0","",""
"154183","","Leinunpuisto I","60.9809093377435","24.4115413758171","1","http://109","0","","109","","","0","",""
"154184","","Keskustie L","60.9781814809092","24.4161160634191","1","http://109","0","","109","","","0","",""
"154185","","Keskustie I","60.9781435250202","24.4162892269248","1","http://109","0","","109","","","0","",""
"154186","","Voutilakeskus I","60.9768929551127","24.4214741474773","1","http://109","0","","109","","","0","",""
"154187","","Voutilakeskus L","60.9767365392014","24.4220956375133","1","http://109","0","","109","","","0","",""
"154188","","Sipilä L","60.9751521355841","24.4297929913659","1","http://109","0","","109","","","0","",""
"154189","","Sipilä I","60.9751587603385","24.4301267911548","1","http://109","0","","109","","","0","",""
"154190","","Alaspää E","60.9762676293066","24.4344756666919","1","http://109","0","","109","","","0","",""
"154191","","Alaspää P","60.9773860417306","24.4363467454159","1","http://109","0","","109","","","0","",""
"154193","","Martankuja I","60.9779426071239","24.4302010639155","1","http://109","0","","109","","","0","",""
"154194","","Martankuja L","60.9782084104601","24.4290240657805","1","http://109","0","","109","","","0","",""
"154195","","Aurapuisto I","60.9793091763856","24.4243169309426","1","http://109","0","","109","","","0","",""
"154196","","Aurapuisto L","60.9797157846426","24.4232581939006","1","http://109","0","","109","","","0","",""
"154197","","Riimupuisto I","60.9816530894579","24.4191640527043","1","http://109","0","","109","","","0","",""
"154198","","Riimupuisto L","60.9822441778508","24.4179011260935","1","http://109","0","","109","","","0","",""
"154199","","Voutila P","60.9829884377538","24.4138426520364","1","http://109","0","","109","","","0","",""
"154200","","Voutila E","60.9826416193438","24.4134900151104","1","http://109","0","","109","","","0","",""
"154203","","Ahvenisto E","60.98452237494444","24.41327947692532","1","http://109","0","","109","","","0","",""
"154204","","Nummi P","60.9852526338936","24.4100836795244","1","http://109","0","","109","","","0","",""
"154205","","Ahvenisto L","60.9851381419092","24.4121906300006","1","http://109","0","","109","","","0","",""
"154207","","Rapamäki I","60.9872675842619","24.4238299765155","1","http://109","0","","109","","","0","",""
"154209","","Jukola I","60.9860059455536","24.4167550343899","1","http://109","0","","109","","","0","",""
"154210","","Rapamäki L","60.9873232486621","24.4227178879394","1","http://109","0","","109","","","0","",""
"154211","","Valtion virastotalo L","60.997355120768","24.4566782823055","1","http://109","0","","109","","","0","",""
"154212","","Kasarmikatu","60.9969379076659","24.4608921327955","1","http://109","0","","109","","","0","",""
"154213","","Sibeliuksenpuisto P","60.9980999884238","24.462533781392","1","http://109","0","","109","","","0","",""
"154216","","Anttila L","61.0045459583144","24.500768011177","1","http://109","0","","109","","","0","",""
"154217","","Anttila I","61.00446710525","24.5004706729593","1","http://109","0","","109","","","0","",""
"154218","","Puistonmäki P","61.018269855386","24.424216994062","1","http://109","0","","109","","","0","",""
"154220","","Katuma P","60.9848866093411","24.5172223632136","1","http://109","0","","109","","","0","",""
"154221","","Katuma E","60.9851610281512","24.5169740090789","1","http://109","0","","109","","","0","",""
"154222","","Lammaskallio I","60.986408853119","24.5135896520096","1","http://109","0","","109","","","0","",""
"154223","","Lammaskallio L","60.986405252534","24.513381491191","1","http://109","0","","109","","","0","",""
"160559","","Kuurnatie L","61.0814487376156","24.9944692990652","3","http://109","0","","109","","","0","",""
"160560","","Kuurnatie I","61.0812304999001","24.9939039343988","3","http://109","0","","109","","","0","",""
"160561","","Kuusimäki L","61.080478684142","24.9870327364496","3","http://109","0","","109","","","0","",""
"160562","","Kuusimäki I","61.0804684141269","24.9882792012649","3","http://109","0","","109","","","0","",""
"160563","","Haukanmäki E","61.0780576245184","24.9780679589306","3","http://109","0","","109","","","0","",""
"160564","","Haukanmäki P","61.0775773311111","24.9775885317054","3","http://109","0","","109","","","0","",""
"160782","","Parkunhaka L","61.0618841059083","24.3730191712859","2","http://82","0","","82","","","0","",""
"160783","","Parkunhaka I","61.061856","24.373237","2","http://82","0","","82","","","0","",""
"160785","","Parola A","61.0548814549875","24.3723014413168","2","http://82","0","","82","","","0","",""
"160786","","Mäenpää","61.1183390492628","24.3274995538173","2","http://82","0","","82","","","0","",""
"160804","","Hakkala I","61.0817266585924","25.0044663573326","3","http://109","0","","109","","","0","",""
"160805","","Hakkala L","61.0817911559345","25.0036868122743","3","http://109","0","","109","","","0","",""
"160954","","Kappelintie P","60.8956773110124","24.2911172268232","2","http://109","0","","109","","","0","",""
"160955","","Kappelintie E","60.8954622251849","24.2907509442483","2","http://109","0","","109","","","0","",""
"160958","","Urheilukentäntie","61.0532378136268","24.3673789167805","2","http://82","0","","82","","","0","",""
"169970","","Turenki linja-autoasema","60.92317224942032","24.64754733389531","2","http://165","0","","165","","","0","",""
"170035","","Lammi linja-autoasema","61.07859179672075","25.010482422856974","3","http://109","0","","109","","","0","",""
"171023","","Eteläinen P","61.0694916098052","24.679942550364","2","http://109","0","","109","","","0","",""
"171024","","Eteläisten koulu P","61.0734678539969","24.6819178766394","2","http://109","0","","109","","","0","",""
"171025","","Kankurintie L","61.1823755222951","24.3869858028521","3","http://109","0","","109","","","0","",""
"171277","","Harvialan koulu P","60.95471149382455","24.602197933417205","2","http://165","0","","165","","","0","",""
"171278","","Harvialan koulu E","60.954607294994","24.6020855871446","2","http://165","0","","165","","","0","",""
"171279","","Seppälä L","60.9213602450042","24.6588733841608","2","http://165","0","","165","","","0","",""
"171280","","Seppälä I","60.9216786198827","24.6610940520693","2","http://165","0","","165","","","0","",""
"171425","","Alangontie L","61.0363060736099","25.0832303792121","5","http://98","0","","98","","","0","",""
"171426","","Alangontie I","61.0358484947842","25.0847153271352","5","http://98","0","","98","","","0","",""
"171427","","Ojastenmäki I","61.0278890091687","25.1030354017513","5","http://98","0","","98","","","0","",""
"171428","","Ojastenmäki L","61.0266985281293","25.1061669312131","5","http://98","0","","98","","","0","",""
"171429","","Hämeenkoski Läntinen th L","61.0254730852677","25.110035090233","5","http://98","0","","98","","","0","",""
"181340","","Tuulostori","61.11778037353985","24.833170138878753","3","http://109","0","","109","","","0","",""
"181348","","Vähänummi E","61.0594658795662","24.3541550633376","2","http://82","0","","82","","","0","",""
"181826","","Tervakoski linja-autoasema","60.81586765389767","24.627536261991946","3","http://165","0","","165","","","0","",""
"184321","","Syrjäntaan koulu I","61.1257076102588","24.8168173680845","3","http://109","0","","109","","","0","",""
"184322","","Sairakkala I","61.0020377131811","25.3098821071455","6","http://98","0","","98","","","0","",""
"184323","","Suontaustantie I","61.0017788674224","25.3160121542795","6","http://98","0","","98","","","0","",""
"184327","","Hedelmätarhantie I","60.9867740819885","25.5271050497077","6","http://98","0","","98","","","0","",""
"184329","","Tähtitorni L","60.9839970136017","25.5858994291575","7","http://398","0","","398","","","0","",""
"184330","","Sopenkorpi I","60.9807879162347","25.630698094191","7","http://398","0","","398","","","0","",""
"184499","","V12","61.0543420700279","25.0061559290995","3","http://109","0","","109","","","0","",""
"184500","","Kirkkosillantie E","61.0582344176021","25.0069358182738","3","http://109","0","","109","","","0","",""
"184501","","Kirkkosillantie P","61.0589999562435","25.0072984315958","3","http://109","0","","109","","","0","",""
"184502","","Oitentie P","61.0672893912864","25.0119928161837","3","http://109","0","","109","","","0","",""
"184503","","Konnari E","61.0685706672346","25.0127742344615","3","http://109","0","","109","","","0","",""
"184504","","Konnari P","61.0700394663162","25.0132219122123","3","http://109","0","","109","","","0","",""
"184505","","Turengintie E","61.0718307809642","25.01291373511","3","http://109","0","","109","","","0","",""
"184506","","Turengintie P","61.0733796215774","25.0124759647948","3","http://109","0","","109","","","0","",""
"184507","","Palkkisillantie E","61.0746151525462","25.0115177200293","3","http://109","0","","109","","","0","",""
"187290","","Peltosaari E","60.7667445375281","24.6918393350574","3","http://165","0","","165","","","0","",""
"187554","","Prisma L","61.0103277506936","24.412493090238","1","http://109","0","","109","","","0","",""
"187556","","Prisma I","61.010657","24.411613","1","http://109","0","","109","","","0","",""
"187557","","Mäkelä I","61.012031","24.406787","1","http://109","0","","109","","","0","",""
"187832","","Kukonkoivu ramppi L","60.9839042385874","25.4189256726377","6","http://98","0","","98","","","0","",""
"188225","","Lontilankuja","61.0928459188236","23.9768299979658","3","http://109","0","","109","","","0","",""
"189491","","Uusi-Hannukkala L","61.0034173747694","25.2978448012942","6","http://98","0","","98","","","0","",""
"189492","","Uusi-Hannukkala I","61.0031629071442","25.300686536765","6","http://98","0","","98","","","0","",""
"189494","","Vihattu L","60.9979998592818","25.3477868883221","6","http://98","0","","98","","","0","",""
"189495","","Vihattu I","60.9977147347695","25.3491806761184","6","http://98","0","","98","","","0","",""
"189496","","Vihatuntie L","60.9936893940177","25.368425486109","6","http://98","0","","98","","","0","",""
"189497","","Vihatuntie I","60.9934228844962","25.3696929953009","6","http://98","0","","98","","","0","",""
"189498","","Likojärventie L","60.9897317443749","25.3871857168656","6","http://98","0","","98","","","0","",""
"189499","","Likojärventie I","60.9890499199184","25.3904109268345","6","http://98","0","","98","","","0","",""
"189605","","Vermasvuori Kt 57 E","61.1832944634473","24.4136632738155","3","http://109","0","","109","","","0","",""
"189606","","Vermasvuori Kt 57 P","61.1843153320531","24.4136702744657","3","http://109","0","","109","","","0","",""
"189607","","Ilmoila Kt 57 E","61.2225748191019","24.3840291802488","3","http://109","0","","109","","","0","",""
"189608","","Ilmoila Kt 57 P","61.2229941769359","24.3838151342638","3","http://109","0","","109","","","0","",""
"190399","","Turkumäentie L","60.986940391336","25.4667976474312","6","http://98","0","","98","","","0","",""
"190401","","Ahertajantie I","60.9851102461117","25.4972032084178","6","http://98","0","","98","","","0","",""
"190494","","Hämeenkoski keskusta I","61.0219172432057","25.1537994726829","5","http://98","0","","98","","","0","",""
"191016","","Verimännistö E","61.0913155079939","24.696064864545","3","http://109","0","","109","","","0","",""
"191017","","Kivikoulu E","61.1670011126139","24.5745390602854","3","http://109","0","","109","","","0","",""
"191158","","Ohtinen","61.0588140722817","23.9578389937742","3","http://109","0","","109","","","0","",""
"191167","","Lenni I","61.0937518339949","24.1451387118732","3","http://109","0","","109","","","0","",""
"191168","","Lenni L","61.0935133406219","24.1432575607061","3","http://109","0","","109","","","0","",""
"191169","","Hirsitie P","60.9736230556208","24.2577180917273","2","http://82","0","","82","","","0","",""
"191171","","Männiköntie I","60.9013027899605","24.2917629684612","2","http://109","0","","109","","","0","",""
"191172","","Lukkopelto P","60.8852660631973","24.3157809375041","3","http://109","0","","109","","","0","",""
"191173","","Lukkopelto E","60.88512557521","24.3159096828035","3","http://109","0","","109","","","0","",""
"191320","","Melkkola P","60.8359294297032","24.6280293142619","3","http://165","0","","165","","","0","",""
"191321","","Rastaanpolku I","60.8914243312818","24.2974634097807","2","http://109","0","","109","","","0","",""
"191326","","Tiilitehdas E","60.8566988124678","24.70808614735","3","http://165","0","","165","","","0","",""
"191327","","Haukankalliontie E","60.8635771707377","24.7065255005049","3","http://165","0","","165","","","0","",""
"191328","","Haukankalliontie P","60.8643828922428","24.7067548448364","3","http://165","0","","165","","","0","",""
"191331","","Kisala P","60.8715103716423","24.7114276709494","3","http://165","0","","165","","","0","",""
"191332","","Kisala E","60.8717031582612","24.7117040547295","3","http://165","0","","165","","","0","",""
"191333","","Pukuri E","60.8767257221325","24.7202796683449","3","http://165","0","","165","","","0","",""
"191334","","Pukuri P","60.8769536719876","24.7206542441055","3","http://165","0","","165","","","0","",""
"191335","","Konttila E","60.9088579707183","24.6695327014825","2","http://165","0","","165","","","0","",""
"191336","","Kiipula E","60.8890515640362","24.7142313642397","3","http://165","0","","165","","","0","",""
"191337","","Kiipula P","60.8890797646487","24.7141225381432","3","http://165","0","","165","","","0","",""
"191338","","Paistianmäki I","60.9518775777472","24.6167456707364","2","http://165","0","","165","","","0","",""
"191339","","Pyhän Laurin Kirkko E","60.8935184310658","24.5943865765484","3","http://165","0","","165","","","0","",""
"191340","","Janakkala kk E","60.8953312123637","24.5933467365984","2","http://165","0","","165","","","0","",""
"191341","","Mansikkapellontie P","60.9166165712384","24.6123786053263","2","http://165","0","","165","","","0","",""
"191342","","Kaskentie L","61.056781290406","24.3529600215059","2","http://82","0","","82","","","0","",""
"191343","","Jokivarrentie E","61.1045635698624","24.4231458121095","2","http://82","0","","82","","","0","",""
"191380","","Tarvasmäki I","60.9620691914994","24.556159746072897","1","http://109","0","","109","","","0","",""
"191381","","Tarvasmäki L","60.9631166661611","24.5535356595936","1","http://109","0","","109","","","0","",""
"191413","","Siankärsäntie L","60.914406512684","24.5552841013082","2","http://165","0","","165","","","0","",""
"191414","","Siankärsäntie I","60.9144412795662","24.5567009166222","2","http://165","0","","165","","","0","",""
"191423","","Rahkoila Kt 57 P","61.0740371423251","24.3915827825242","2","http://82","0","","82","","","0","",""
"191447","","Keskuskuja I","60.9205547548063","24.6496452453371","2","http://165","0","","165","","","0","",""
"191498","","Vankanlähde E","60.974335","24.473536","1","","0","","109","","","0","",""
"191499","","Vankanlähde P","60.9747749737424","24.4732130768378","1","http://109","0","","109","","","0","",""
"191500","","Kaarneenmäentie E","61.0916479140135","24.1645114300395","3","http://109","0","","109","","","0","",""
"191501","","Kaarneenmäentie P","61.0926416962434","24.1633932243243","3","http://109","0","","109","","","0","",""
"191510","","Rytkösentori","60.9658155782568","24.7601724598545","3","http://165","0","","165","","","0","",""
"191514","","Lepola L","60.9536897096567","24.4097775656164","1","http://109","0","","109","","","0","",""
"191517","","Alvettula th I","61.2132140271835","24.4994360544102","3","http://109","0","","109","","","0","",""
"191526","","Kirkkokallio I","61.0528774241733","25.0066254889235","3","http://109","0","","109","","","0","",""
"191527","","Tuomelantie E","61.0503597668831","25.0112300531999","3","http://109","0","","109","","","0","",""
"191625","","Kekki E","61.1601929997996","25.0297603522506","3","http://109","0","","109","","","0","",""
"191626","","Kekki P","61.1611915623271","25.0305875090417","3","http://109","0","","109","","","0","",""
"191627","","Pihkalanmäki etel. E","61.1645811714508","25.031474464818","3","http://109","0","","109","","","0","",""
"191628","","Pihkalanmäki etel. P","61.1655850303352","25.031353320244","3","http://109","0","","109","","","0","",""
"191660","","Paroinen E","61.0178033133265","24.4204140772894","1","http://109","0","","109","","","0","",""
"191661","","Paroinen P","61.018556522552","24.4207578410046","1","http://109","0","","109","","","0","",""
"191662","","Tuiskula Kt 57 P","61.032818845295","24.4145721773076","2","http://82","0","","82","","","0","",""
"191663","","Katinala Kt 57 E","61.0360766536858","24.4087060486946","2","http://82","0","","82","","","0","",""
"191664","","Rahkoila Kt 57 E","61.0717858363442","24.3915381986379","2","http://82","0","","82","","","0","",""
"201152","","Tervakosken koulu","60.8076545879111","24.625714853578","3","http://165","0","","165","","","0","",""
"201154","","Kauppakuja L","60.9198740383227","24.6399010991354","2","http://165","0","","165","","","0","",""
"201155","","Viljavarasto I","60.9150363249981","24.6477628606235","2","http://165","0","","165","","","0","",""
"201156","","Paronintie I","60.9144570339726","24.6543015828342","2","http://165","0","","165","","","0","",""
"201157","","Ratsukuja I","60.9134629362173","24.6608140923046","2","http://165","0","","165","","","0","",""
"201158","","Ratsukuja L","60.9134744750403","24.6611396299416","2","http://165","0","","165","","","0","",""
"201159","","Paronintie L","60.9143779651002","24.6547575811765","2","http://165","0","","165","","","0","",""
"201160","","Kuumola L","60.9156087577938","24.6440051153703","2","http://165","0","","165","","","0","",""
"201161","","Kauppakuja I","60.9198849450722","24.6400026340956","2","http://165","0","","165","","","0","",""
"201163","","Kukkatalo P","60.9359347130168","24.6344889648808","2","http://165","0","","165","","","0","",""
"201164","","Ammattikoulu P","60.9389301809586","24.6330365334756","2","http://165","0","","165","","","0","",""
"201165","","Kauriinmaa P","60.942390751212","24.6307439484614","2","http://165","0","","165","","","0","",""
"201166","","Seppänen P","60.9451479841521","24.628914587677","2","http://165","0","","165","","","0","",""
"201167","","Koljala P","60.9491347893834","24.6232127025792","2","http://165","0","","165","","","0","",""
"201168","","Koljala E","60.9482327682854","24.6244554618262","2","http://165","0","","165","","","0","",""
"201169","","Seppänen E","60.9439940393502","24.6297201165577","2","http://165","0","","165","","","0","",""
"201170","","Kauriinmaa E","60.9418589233293","24.6307525050223","2","http://165","0","","165","","","0","",""
"201171","","Ammattikoulu E","60.9383870365512","24.6334491557409","2","http://165","0","","165","","","0","",""
"201172","","Kukkatalo E","60.9354958961028","24.6353204513491","2","http://165","0","","165","","","0","",""
"201173","","Kivimäentie I","61.0676420135134","24.4123887789578","2","http://82","0","","82","","","0","",""
"201174","","Rasilantie I","61.062242","24.362852","2","http://82","0","","82","","","0","",""
"201175","","Mierolantie L","61.0610902853131","24.3856556077723","2","http://82","0","","82","","","0","",""
"201177","","Nummi L","60.9849931622828","24.4088444039372","1","http://109","0","","109","","","0","",""
"201180","","Sisälähetys L","60.9926511328073","24.4462723409439","1","http://109","0","","109","","","0","",""
"201181","","Hallituskatu L","60.9962575434681","24.4609143778417","1","http://109","0","","109","","","0","",""
"201182","","Reska B","60.9957823745388","24.4618840469458","1","http://109","0","","109","","","0","",""
"201183","","Reska A","60.9956962088922","24.4619556505316","1","http://109","0","","109","","","0","",""
"201184","","Tiiriö L","61.0061768426558","24.4134640201529","1","http://109","0","","109","","","0","",""
"201185","","Sähkömestarintie I","61.0086298332917","24.4044360488111","1","http://109","0","","109","","","0","",""
"201186","","Sähkömestarintie L","61.0088544612825","24.4034394336057","1","http://109","0","","109","","","0","",""
"201187","","Hallituskatu I","60.9962779460779","24.4610116740734","1","http://109","0","","109","","","0","",""
"201194","","Mantereenvuori P","60.9824100669644","24.5203702004663","1","http://109","0","","109","","","0","",""
"201197","","Laaniitty P","61.0118272071808","24.5009593835259","1","http://109","0","","109","","","0","",""
"201198","","Saarenpäänkatu P","61.0146948849964","24.4981676410884","1","http://109","0","","109","","","0","",""
"201199","","Aulangontorppa P","61.0181221971394","24.5018943662627","1","http://109","0","","109","","","0","",""
"201203","","Rautamäenpuisto I","61.0127452046502","24.5198251866908","1","http://109","0","","109","","","0","",""
"201204","","Ruununmyllyn koulu I","61.0134198764904","24.526857005558","1","http://109","0","","109","","","0","",""
"201205","","Messupolku P","61.0109010018633","24.5323991020003","1","http://109","0","","109","","","0","",""
"201218","","Pitkätanhuankatu L","61.0082146373594","24.4148147900228","1","http://109","0","","109","","","0","",""
"201219","","Mäkelä P","61.0129134578283","24.4059313090748","1","http://109","0","","109","","","0","",""
"201220","","Kuokkamaantie P","60.9828233560237","24.3832408987122","1","http://109","0","","109","","","0","",""
"201221","","Kuokkamaantie E","60.9830050526247","24.3831239371981","1","http://109","0","","109","","","0","",""
"201228","","Ansionmäki L","60.9819764712627","24.4531308501155","1","http://109","0","","109","","","0","",""
"201229","","Onnela L","60.9756950845503","24.4666427838789","1","http://109","0","","109","","","0","",""
"201231","","Teboil","60.8961311941569","24.2774077292413","2","http://109","0","","109","","","0","",""
"211562","","Riihimäki Matkakeskus","60.734154","24.780909","4","","0","","694","","","0","","3"
"211747","","Hedelmätarha L","60.9869088420921","25.5229641372589","6","http://98","0","","98","","","0","",""
"211752","","Rinkelinmäki E","60.9983480770463","24.4284963940803","1","http://109","0","","109","","","0","",""
"231344","","Aulangon Heikkilä P","61.0306528533694","24.4501078604018","1","http://109","0","","109","","","0","",""
"300149","","Pullapojat L","60.9870555297841","25.5389053083177","6","http://98","0","","98","","","0","",""
"300300","","Salpakangas vt 12 I","60.9867704595334","25.5144658322425","6","http://98","0","","98","","","0","",""
"300301","","Salpakangas vt 12 L","60.9867739518792","25.5125928369657","6","http://98","0","","98","","","0","",""
"300302","","Soramäki L","60.9862557793097","25.4899872372831","6","http://98","0","","98","","","0","",""
"300331","","Tenheläntie I","61.0067566363485","25.2387435064483","5","http://98","0","","98","","","0","",""
"300360","","Hämeenlinna linja-autoasema  tulolaituri","60.99495161584801","24.46653097520817","1","http://109","0","","109","","","0","",""
"300458","","Tiilijärventie vt 12 L","60.986077123326","25.5071741178276","6","http://98","0","","98","","","0","",""
"300459","","Tiilijärventie vt 12 I","60.985804712236","25.5062305884415","6","http://98","0","","98","","","0","",""
"300463","","Rakuunankatu L","60.981772761354","25.5921758711412","7","http://398","0","","398","","","0","",""
"300700","","Iittala","61.0915180571898","24.1340383371605","3","http://109","0","","109","","","0","",""
"301007","","Evon metsäopisto","61.1964162397132","25.1074324847628","3","http://109","0","","109","","","0","",""
"301155","","Harjunmäki th (ei merkkiä)","60.8538471175973","24.6182056127331","3","http://165","0","","165","","","0","",""
"301181","","Asemi P (ei merkkiä)","60.847132","24.425848","3","http://109","0","","109","","","0","",""
"302503","","Laurila L","60.9770180179179","24.4342458359195","1","http://109","0","","109","","","0","",""
"302525","","Virveli E","60.9819312401928","24.4681996526369","1","http://109","0","","109","","","0","",""
"302529","","Viisari I","61.0089659987681","24.3965328830265","1","http://109","0","","109","","","0","",""
"302555","","Laurila I","60.9763894237425","24.4359264415091","1","http://109","0","","109","","","0","",""
"302558","","Seppälänmäki E","60.9722327483354","24.4375912984511","1","http://109","0","","109","","","0","",""
"302560","","Seppälänmäki P","60.9716408346606","24.4372364864612","1","http://109","0","","109","","","0","",""
"302562","","Suvikas E","60.9679744213579","24.4409088111042","1","http://109","0","","109","","","0","",""
"302563","","Suvikas P","60.9681946079204","24.4400991426647","1","http://109","0","","109","","","0","",""
"302564","","Ratasniitty E","60.9652956509071","24.4475437960004","1","http://109","0","","109","","","0","",""
"302565","","Ratasniitty P","60.9659843502702","24.4465042213752","1","http://109","0","","109","","","0","",""
"302603","","Suvirinne E","60.9615010667427","24.416615504961","1","http://109","0","","109","","","0","",""
"302639","","Kämmekäntie L","60.9849216447886","24.3839538363048","1","http://109","0","","109","","","0","",""
"302649","","Turuntien silta L","60.9948302572872","24.4564926294573","1","http://109","0","","109","","","0","",""
"302723","","Kämmekäntie I","60.9854232217907","24.3850256503888","1","http://109","0","","109","","","0","",""
"302813","","Tuittula","61.1310228988954","24.5831222904927","3","http://109","0","","109","","","0","",""
"302815","","Hauhontaka","61.1165546276545","24.5493872767834","3","http://109","0","","109","","","0","",""
"302817","","Pikkuharju Kt 57 P","61.2407606028982","24.3630933494025","3","http://109","0","","109","","","0","",""
"302818","","Pälkäneentie L","61.183713084255","24.4123664710357","3","http://109","0","","109","","","0","",""
"302820","","Pälkäneentie I","61.1837158502839","24.4129993253952","3","http://109","0","","109","","","0","",""
"302821","","Likokuja I","61.114515367703","24.8402534450365","3","http://109","0","","109","","","0","",""
"302822","","Luopioisten th I","61.1380098507659","24.8006934299126","3","http://109","0","","109","","","0","",""
"302823","","Tuulos kk I","61.1440640906343","24.7908285703997","3","http://109","0","","109","","","0","",""
"302827","","Kellotapuli I","61.0881138745936","24.9141225094292","3","http://109","0","","109","","","0","",""
"302864","","Teollisuuskylä I","60.8177828925267","24.6386919457042","3","http://165","0","","165","","","0","",""
"302870","","Koppisentie P","60.7540632506563","24.7044470028044","3","http://165","0","","165","","","0","",""
"302880","","Retula","61.1907817737312","24.3303481044619","3","http://109","0","","109","","","0","",""
"302881","","Petäys","61.1570357704209","24.3262258286586","3","http://82","0","","82","","","0","",""
"302882","","Lepaan koulu E","61.1183705880124","24.3385429016719","2","http://82","0","","82","","","0","",""
"302885","","Markkulanmäki","61.0439329776178","24.2819271669618","2","http://82","0","","82","","","0","",""
"302903","","Korventausta","61.1160907505058","24.5400852129126","3","http://109","0","","109","","","0","",""
"302904","","Kuhala L","61.1279987510832","24.5043716156252","3","http://109","0","","109","","","0","",""
"302905","","Nurmintie I","61.1945205099732","24.4825210655478","3","http://109","0","","109","","","0","",""
"302917","","Kellotapuli L","61.0886001893011","24.9125676425967","3","http://109","0","","109","","","0","",""
"302955","","Rimmiläntie th P","60.992154191888","24.0241629845814","3","http://109","0","","109","","","0","",""
"302956","","Suviranta","61.0107872242585","24.1297251464169","3","http://109","0","","109","","","0","",""
"304570","","Kankaantausta I","60.979073875015","24.4620534226815","1","http://109","0","","109","","","0","",""
"304593","","Heinäjoen koulu","60.9438257489226","24.7310911733867","3","http://165","0","","165","","","0","",""
"304594","","Saloinen","60.9643259423119","24.8746810464436","3","http://165","0","","165","","","0","",""
"304595","","Löyttymäki","60.903436","24.93511","3","http://165","0","","165","","","0","",""
"304629","","Paavola th","60.9323055814162","24.9132761758335","3","http://165","0","","165","","","0","",""
"304630","","Sillanpää","60.8519195813231","24.8782977257892","3","http://165","0","","165","","","0","",""
"305518","","Katinala P","61.0377741173358","24.4017629090217","2","http://82","0","","82","","","0","",""
"306921","","Turuntien silta I","60.9947976339536","24.4563474368463","1","http://109","0","","109","","","0","",""
"307219","","Hyvikkälä","60.8818222335999","24.5185480909892","3","http://165","0","","165","","","0","",""
"307220","","Rehakka","60.8407521193655","24.52837930115","3","http://165","0","","165","","","0","",""
"307221","","Lauttiankulma","60.8822337281229","24.4158727843012","3","http://165","0","","165","","","0","",""
"307225","","Tenhola Suontaka th","61.097312","24.302153","2","http://82","0","","82","","","0","",""
"307226","","Suontaka","61.1057620236076","24.3079763432158","2","http://82","0","","82","","","0","",""
"307227","","Mervi","61.091388386456","24.3369906966559","2","http://82","0","","82","","","0","",""
"307508","","Lieso","61.1646800208166","24.9124241308158","3","http://109","0","","109","","","0","",""
"307513","","Sairio (palvelulinja)","61.0149085044875","24.4749618328317","1","http://109","0","","109","","","0","",""
"307514","","Idänpään palvelukeskus","61.003538","24.498527","1","http://109","0","","109","","","0","",""
"307515","","Tori (palvelulinja)","60.9961576841777","24.4651487826972","1","http://109","0","","109","","","0","",""
"307516","","Virvelinranta","60.9837365467046","24.4670483079072","1","http://109","0","","109","","","0","",""
"307517","","Kankaantausta (palvelulinja)","60.9799048231948","24.4649598086776","1","http://109","0","","109","","","0","",""
"307518","","Tiiriö (CM palvelulinja)","61.00760193366539","24.421224452688513","1","http://109","0","","109","","","0","",""
"307519","","Tiiriö (Prisma palvelulinja)","61.0106743273697","24.4137569961751","1","http://109","0","","109","","","0","",""
"307520","","Puistonmäki (palvelulinja)","61.0178716604921","24.4305481184254","1","http://109","0","","109","","","0","",""
"307521","","Kauriala P (palvelulinja)","61.0001592956323","24.4287251361402","1","http://109","0","","109","","","0","",""
"307522","","Kauriala E (palvelulinja)","60.9972006621045","24.4361442438488","1","http://109","0","","109","","","0","",""
"307524","","Mäyränpesä","61.0103050057822","24.4424328071161","1","http://109","0","","109","","","0","",""
"309002","","Pajakatu E","60.9912540953367","24.4560672941176","1","http://109","0","","109","","","0","",""
"309003","","Lahdensivuntie E","60.9874899351094","24.4599047414822","1","http://109","0","","109","","","0","",""
"309004","","Virvelinpuisto E","60.9850278215594","24.4631123559059","1","http://109","0","","109","","","0","",""
"309005","","Virvelinpuisto P","60.9855937510024","24.4624696327988","1","http://109","0","","109","","","0","",""
"309006","","Lahdensivuntie P","60.987712073081","24.4596124214177","1","http://109","0","","109","","","0","",""
"309007","","Pajakatu P","60.9912807593132","24.4560450656201","1","http://109","0","","109","","","0","",""
"309565","","Lautsian piha","61.2349824759765","24.4391755865677","3","http://109","0","","109","","","0","",""
"309619","","Lahti Matkakeskus terminaali","60.9771219457412","25.659724755504506","7","http://398","0","","398","","","0","",""
"309943","","Luolajan koulu P","60.970955","24.426632","1","http://109","0","","109","","","0","",""
"310005","","Porras I (ei merkkiä)","61.179136","24.631436","3","http://109","0","","109","","","0","",""
"310007","","Rasi P (ei merkkiä)","60.798452","24.357805","3","http://109","0","","109","","","0","",""
"310221","","Aleksanterinkatu L","60.9834671423906","25.6523292921548","7","http://398","0","","398","","","0","",""
"310222","","Ali-Raakkulantie E","60.976393","24.376639","1","http://109","0","","109","","","0","",""
"310223","","Ali-Raakkulantie P","60.97588","24.377647","1","http://109","0","","109","","","0","",""
"310224","","Nurkkajussinkuja P","60.97352","24.381363","1","http://109","0","","109","","","0","",""
"310225","","Nurkkajussinkuja E","60.972905","24.382327","1","http://109","0","","109","","","0","",""
"310226","","Siirinkatu I","61.011295","24.535228","1","http://109","0","","109","","","0","",""
"310227","","Siirinkatu L","61.011371","24.535632","1","http://109","0","","109","","","0","",""
"310228","","Siirintaustantie","61.01145","24.558763","1","","0","","109","","","0","",""
"310229","","Pakkaspojankuja L","61.011261","24.545783","1","http://109","0","","109","","","0","",""
"310230","","Lumipallonkuja I","61.011444","24.539657","1","http://109","0","","109","","","0","",""
"310231","","Pakkaspojankuja I","61.010911","24.544562","1","http://109","0","","109","","","0","",""
"310582","","Katinala E","61.037494","24.40224","2","http://82","0","","82","","","0","",""
"310583","","Taunonkuja P","61.035407","24.406582","2","http://82","0","","82","","","0","",""
"310584","","Taunonkuja E","61.035523","24.406334","2","http://82","0","","82","","","0","",""
"310585","","Tuulitie I","61.057076","24.376351","2","http://82","0","","82","","","0","",""
"310600","","Parolan koulut piha","61.054768","24.360085","2","http://82","0","","82","","","0","",""
"310601","","Hauhon yhtenäiskoulu piha","61.167409","24.574291","3","http://109","0","","109","","","0","",""
"310602","","Valtee Hauhontaustantie I (th kt 57)","61.091624","24.402786","2","http://82","0","","82","","","0","",""
"310603","","Jokivarrentie P","61.104771","24.423346","2","http://82","0","","82","","","0","",""
"310604","","Kuhala I","61.127995","24.50478","3","http://109","0","","109","","","0","",""
"310634","","Iso-Evonraitti L","61.179082","25.053627","3","http://109","0","","109","","","0","",""
"310641","","Lintumaa","61.058149","23.80891","3","http://109","0","","109","","","0","",""
"310649","","Kostila Takamaa th","61.123881","25.133804","3","http://109","0","","109","","","0","",""
"310650","","Ylänne","61.130044","25.229184","3","http://109","0","","109","","","0","",""
"310651","","Teuro Metsähaarantie th","61.079206","24.837256","3","http://109","0","","109","","","0","",""
"310652","","Vähä-Evo Jokivarren th","61.186714","24.964141","3","http://109","0","","109","","","0","",""
"312602","","Nupputie P","60.959215","24.552343","1","http://109","0","","109","","","0","",""
"312603","","Tuulitie L","61.05733","24.377153","2","http://82","0","","82","","","0","",""
"312700","","Kikaristonkatu L","61.019834","24.51442","1","http://109","0","","109","","","0","",""
"312701","","Kikaristonkatu I","61.019592","24.516681","1","http://109","0","","109","","","0","",""
"312702","","Liuskekuja P","61.02129","24.514825","1","http://109","0","","109","","","0","",""
"312703","","Vierinkiventie E","61.021174","24.519409","1","http://109","0","","109","","","0","",""
"312704","","Höytöläntie P","60.961832","24.554452","1","http://109","0","","109","","","0","",""
"313610","","Pietiläntie I","61.014409","24.402365","1","http://109","0","","109","","","0","",""
"313612","","Papinniityntie P","61.009445","24.498947","1","http://109","0","","109","","","0","",""
"313613","","Länsiportintie I","60.958821","24.45333","1","http://109","0","","109","","","0","",""
"313614","","Ystävyydenpuisto E","60.996906","24.471537","1","http://109","0","","109","","","0","",""
"313704","","Hirsimäki L","60.978823","24.372616","1","http://109","0","","109","","","0","",""
"313706","","Taipaleentie P","60.955359","24.456209","1","http://109","0","","109","","","0","",""
"313707","","Kuusistonportti L","61.009268","24.511076","1","http://109","0","","109","","","0","",""
"313800","","Pitkätanhuankatu I","61.008672","24.413778","1","http://109","0","","109","","","0","",""
"314000","","Idänpään torppa P","61.00582","24.493488","1","http://109","0","","109","","","0","",""
"314411","","Hämeenlinna linja-autoasema D","60.995544","24.466878","1","http://109","0","","109","","","0","",""
"314412","","Hämeenlinna linja-autoasema E","60.995321","24.465743","1","http://109","0","","109","","","0","",""
"314413","","Härkäpuisto I","61.003901","24.421562","1","http://109","0","","109","","","0","",""
"314504","","Tori Hämeenlinna","60.996477","24.463983","1","http://109","0","","109","","","0","",""
"315718","","Tammipolku P","61.018022","24.510208","1","http://109","0","","109","","","0","",""
"315737","","Mierolantie I","61.0606","24.386844","2","http://82","0","","82","","","0","",""
"316003","","Parola B","61.055338","24.371583","2","http://82","0","","82","","","0","",""
"316101","","Lahti Matkakeskus tulolaituri","60.97709754702571","25.659785583676218","7","","0","","398","","","0","","3"
"316202","","Vähänummi P","61.059578","24.354259","2","http://82","0","","82","","","0","",""
"316403","","Suikki P","60.869419","24.708571","3","http://165","0","","165","","","0","",""
"316404","","Suikki E","60.869137","24.706136","3","http://165","0","","165","","","0","",""
"317104","","Kampuskaarre P","60.979764","24.475506","1","http://109","0","","109","","","0","",""
"318122","","Saloistentien th","60.97983","24.809177","3","http://165","0","","165","","","0","",""
"321207","","Verkatehdas (virtuaalipysäkki)","60.99638811885608","24.476293093278482","1","","0","","109","","","0","","3"
"322221","","Lahti, Matkakeskus laituri 3","60.9771025752417","25.658583374188332","7","https://extranet.vayla.fi/digiroad/#massTransitStopNationalId/322221","0","","398","","","0","",""
"327444","","Katuma Vt 10 I","60.98346604542882","24.508855110716524","1","","0","","109","","","0","","3"
"327445","","Katuma Vt 10 L","60.98451469212474","24.50669861467237","1","","0","","109","","","0","",""
"331419","","Aulangon ulkoilumaja","61.028163209300125","24.459683140339596","1","","0","","109","","","0","","3"
"331420","","Aulangon puistometsä","61.027116203875025","24.448920972339817","1","","0","","109","","","0","","3"
"331523","","Konnarin koulu","61.07091765123601","25.009206254751934","3","","0","","109","","","0","","3"
"333718","","Kankaantausta L","60.97944913310798","24.46160372851069","1","","0","","109","","","0","","3"
"341918","","Kurkitie E","60.96464829261707","24.55704036490717","1","","0","","109","","","0","","3"
"341919","","Höytöläntie E","60.962239372042454","24.554384977985837","1","","0","","109","","","0","","3"
"341920","","Luhtalemmikintie L","60.963869251491985","24.53516695039469","1","","0","","109","","","0","","3"
"341921","","Lepistöntie L","60.96470585413916","24.532008686268227","1","","0","","109","","","0","","3"
"342117","","Käikäläntie L","60.96426176182201","24.55253472307306","1","","0","","109","","","0","","3"
"342118","","Nupputie E","60.959125059204624","24.551954896619947","1","","0","","109","","","0","","3"
"342119","","Häitilänpuisto L","60.96161084058448","24.54267963526557","1","","0","","109","","","0","","3"
"342120","","Ruukinpuisto P","60.96690245935778","24.535274238753782","1","","0","","109","","","0","","3"
"343517","","Karanoja","60.94396672587167","24.48209899119972","1","","0","","109","","","0","","3"
"343518","","Itäportintie P","60.952150250932334","24.46438836507284","1","","0","","109","","","0","","3"
"343519","","Länsiportintie L","60.959984040181865","24.45535468511101","1","","0","","109","","","0","","3"
"343520","","Taipaleentie E","60.95505308079289","24.45649157347096","1","","0","","109","","","0","","3"
"343521","","Itäportintie E","60.951026421662554","24.465954406876318","1","","0","","109","","","0","","3"
"357417","","Hyrväläntie 381 virtuaalipysäkki","61.00456708697071","24.248262411667","2","","0","","109","","","0","","3"
"357717","","Ylikyläntie I","60.92216926804473","24.653970233636446","2","","0","","165","","","0","",""
"362217","","Kuuslammintie P","60.88257820415532","24.517483333604442","3","","0","","109","","","0","","3"
"383521","","Idänpää P","61.00871544039782","24.50572897845102","1","http://109","0","","109","","","0","",""
"384119","","Idänpää L","61.00838263766191","24.506598014171757","1","","0","","109","","","0","",""
"397518","","Keskusvankila E","61.01790746400686","24.402472021846304","1","http://109","0","","109","","","0","","3"
"500126","","Maariansilta (Punkka)  E","60.7769131318143","24.6838739633986","3","http://165","0","","165","","","0","",""
"500315","","Retula P","61.1908541700428","24.3298595800304","3","http://109","0","","109","","","0","",""
"500469","","Hämeenlinna linja-autoasema  laituri 1","60.99507173895183","24.466980970020845","1","http://109","0","","109","","","0","",""
"500470","","Hämeenlinna linja-autoasema  laituri 2","60.9951027596255","24.466888940364328","1","http://109","0","","109","","","0","",""
"500471","","Hämeenlinna linja-autoasema  laituri 3","60.99514502436617","24.466860298605567","1","http://109","0","","109","","","0","",""
"500472","","Hämeenlinna linja-autoasema  laituri 4","60.995190869572035","24.46682409262698","1","http://109","0","","109","","","0","",""
"500473","","Hämeenlinna linja-autoasema  laituri 5","60.995236332929586","24.466785039320413","1","http://109","0","","109","","","0","",""
"500761","","Harjunmäki E","60.853704269666","24.6184589775834","3","http://165","0","","165","","","0","",""
